City_ID,City,Lat,Lng,Max Temp,Humidity,Cloudiness,Wind Speed,Country,Date
0,cape town,-33.9258,18.4232,18.95,80,0,5.14,ZA,1673134240
1,imst,47.2684,10.6698,-0.85,78,63,2.73,AT,1673134324
2,airai,-8.9266,125.4092,19.68,73,95,1.23,TL,1673134325
3,kodiak,57.79,-152.4072,-0.27,74,0,8.75,US,1673134326
4,mogadishu,2.0371,45.3438,25.26,85,15,7.72,SO,1673134112
5,saint-augustin,51.226,-58.6502,-8.54,81,96,0.63,CA,1673134329
6,lavrentiya,65.5833,-171.0,-21.05,97,67,2.38,RU,1673134330
7,hermanus,-34.4187,19.2345,19.33,78,57,4.36,ZA,1673134331
8,ponta delgada,37.7333,-25.6667,17.4,82,20,8.23,PT,1673134332
9,longyearbyen,78.2186,15.6401,-4.09,68,40,3.6,SJ,1673134334
10,puerto ayora,-0.7393,-90.3518,24.19,93,27,1.79,EC,1673134142
11,llodio,43.1432,-2.962,14.72,77,40,1.54,ES,1673134091
12,ushuaia,-54.8,-68.3,17.81,36,20,5.14,AR,1673134337
13,kuryk,43.2,51.65,-3.17,58,100,8.2,KZ,1673134338
14,sao filipe,14.8961,-24.4956,22.65,68,6,7.01,CV,1673134339
15,somerset,40.5668,-74.5496,6.23,78,75,1.54,US,1673134341
16,tuatapere,-46.1333,167.6833,21.21,41,3,2.68,NZ,1673134342
17,narsaq,60.9167,-46.05,-9.88,67,88,4.11,GL,1673134343
18,teacapan,22.55,-105.75,23.96,65,0,3.9,MX,1673134344
19,norman wells,65.282,-126.8329,-21.98,77,100,0.0,CA,1673134346
20,georgetown,5.4112,100.3354,24.97,88,20,2.06,MY,1673134347
21,vardo,70.3705,31.1107,-9.01,92,8,5.66,NO,1673134348
22,broken hill,-31.95,141.4333,30.25,22,8,3.4,AU,1673134349
23,thompson,55.7435,-97.8558,-16.91,85,20,1.54,CA,1673134350
24,vaini,-21.2,-175.2,30.09,79,40,6.17,TO,1673134083
25,rikitea,-23.1203,-134.9692,25.74,74,1,5.81,PF,1673134353
26,yumen,40.2833,97.2,-4.91,34,60,3.26,CN,1673134354
27,libreville,0.3925,9.4537,25.53,81,80,2.2,GA,1673134355
28,bairiki,1.3292,172.9752,30.0,74,40,7.2,KI,1673134356
29,new norfolk,-42.7826,147.0587,22.73,41,0,1.34,AU,1673134358
30,lamu,-2.2717,40.902,26.12,85,18,4.25,KE,1673134359
31,punta arenas,-53.15,-70.9167,15.06,51,0,3.09,CL,1673134318
32,portland,45.5234,-122.6762,11.36,89,100,5.66,US,1673134303
33,sokolo,14.7328,-6.1219,23.92,22,13,4.59,ML,1673134362
34,bredasdorp,-34.5322,20.0403,17.44,79,18,2.81,ZA,1673134363
35,hazorasp,41.3194,61.0742,4.91,90,78,4.09,UZ,1673134365
36,nabire,-3.3667,135.4833,25.82,82,100,0.94,ID,1673134172
37,goderich,43.7501,-81.7165,-2.27,80,56,3.6,CA,1673134368
38,atuona,-9.8,-139.0333,25.62,77,30,6.14,PF,1673134373
39,matara,5.9485,80.5353,22.63,91,82,1.8,LK,1673134374
40,bengkulu,-3.8004,102.2655,23.82,87,96,2.55,ID,1673134376
41,kudahuvadhoo,2.6708,72.8944,27.0,77,84,7.31,MV,1673134377
42,kapaa,22.0752,-159.319,27.29,67,75,2.06,US,1673134378
43,eenhana,-17.4667,16.3333,26.0,23,100,1.37,NA,1673134379
44,luderitz,-26.6481,15.1594,20.04,56,1,2.26,NA,1673134381
45,pedernales,18.0384,-71.744,25.02,70,4,1.95,DO,1673134382
46,shingu,33.7333,135.9833,9.37,60,34,2.94,JP,1673134383
47,chumphon,10.3333,98.8333,20.55,76,97,0.84,TH,1673134384
48,hambantota,6.1241,81.1185,23.9,81,68,6.08,LK,1673134386
49,pochutla,15.7432,-96.4661,24.55,60,0,1.67,MX,1673134387
50,port elizabeth,-33.918,25.5701,20.05,94,69,0.89,ZA,1673134389
51,hobart,-42.8794,147.3294,22.37,55,20,4.63,AU,1673134145
52,fort nelson,58.8053,-122.7002,-14.47,86,75,1.54,CA,1673134222
53,hithadhoo,-0.6,73.0833,26.56,80,77,4.51,MV,1673134393
54,rajka,47.9964,17.1982,6.14,93,100,4.12,HU,1673134394
55,dukat,62.55,155.55,-38.66,96,77,1.66,RU,1673134395
56,menongue,-14.6585,17.691,20.48,60,88,1.81,AO,1673134397
57,nikolskoye,59.7035,30.7861,-17.89,84,79,2.51,RU,1673134398
58,tomatlan,19.9333,-105.25,27.16,52,0,2.5,MX,1673134399
59,darhan,49.4867,105.9228,-19.82,99,65,1.69,MN,1673134400
60,albany,42.6001,-73.9662,2.25,73,97,1.79,US,1673134402
61,la ronge,55.1001,-105.2842,-5.86,86,20,1.54,CA,1673134403
62,provideniya,64.3833,-173.3,-17.81,94,59,4.46,RU,1673134175
63,wagga wagga,-35.1167,147.3667,25.47,50,0,2.24,AU,1673134240
64,moron,-34.6534,-58.6198,27.81,65,50,5.36,AR,1673134407
65,ribeira brava,32.65,-17.0667,18.89,74,41,2.8,PT,1673134408
66,fortuna,40.5982,-124.1573,14.19,90,20,11.32,US,1673134410
67,mataura,-46.1927,168.8643,22.86,30,0,3.14,NZ,1673134411
68,devils lake,48.1128,-98.8651,-12.01,85,0,4.12,US,1673134412
69,teguise,29.0605,-13.564,16.12,72,20,4.12,ES,1673134413
70,pangody,65.85,74.4859,-39.68,93,10,3.71,RU,1673134414
71,aklavik,68.2191,-135.0107,-21.0,77,40,0.0,CA,1673134416
72,carnarvon,-24.8667,113.6333,25.42,46,0,9.88,AU,1673134417
73,nampula,-15.1165,39.2666,22.97,94,75,1.54,MZ,1673134418
74,bandar-e lengeh,26.5579,54.8807,18.31,66,3,4.75,IR,1673134419
75,busselton,-33.65,115.3333,18.46,65,8,4.05,AU,1673134421
76,nassau,40.7507,-73.5829,6.49,68,0,3.6,US,1673134224
77,zabid,14.1951,43.3152,24.12,72,0,1.38,YE,1673134423
78,nueve de julio,-35.4444,-60.8831,33.71,17,44,5.05,AR,1673134145
79,bridlington,54.0831,-0.1919,7.16,79,58,11.82,GB,1673134425
80,port shepstone,-30.7414,30.455,17.71,80,0,3.67,ZA,1673134426
81,tuktoyaktuk,69.4541,-133.0374,-16.0,85,100,3.6,CA,1673134428
82,vestmanna,62.1564,-7.1664,2.51,93,75,1.54,FO,1673134430
83,barrow,71.2906,-156.7887,-24.99,77,0,6.17,US,1673134159
84,havelock,34.8791,-76.9013,10.97,75,0,0.0,US,1673134433
85,avarua,-21.2078,-159.775,26.03,83,75,3.09,CK,1673134434
86,talcahuano,-36.7167,-73.1167,18.82,63,20,3.6,CL,1673134435
87,kushima,31.4583,131.2333,8.12,61,0,2.44,JP,1673134437
88,butaritari,3.0707,172.7902,26.98,81,23,7.16,KI,1673134438
89,mikhaylovka,50.06,43.2379,-19.56,90,7,3.82,RU,1673134439
90,norsup,-16.0667,167.3833,29.42,74,97,3.31,VU,1673134440
91,nemuro,43.3236,145.575,-2.32,60,55,2.88,JP,1673134442
92,nioro,13.35,-15.75,26.68,18,100,3.79,GM,1673134443
93,kavieng,-2.5744,150.7967,29.11,71,62,2.97,PG,1673134444
94,augusto correa,-1.0217,-46.635,24.37,90,96,1.57,BR,1673134338
95,chuy,-33.6971,-53.4616,20.43,84,0,5.09,UY,1673134447
96,klaksvik,62.2266,-6.589,3.51,86,51,5.58,FO,1673134225
97,vrangel,42.7297,133.0839,-7.12,63,2,3.18,RU,1673134450
98,ribeira grande,38.5167,-28.7,17.22,94,75,7.2,PT,1673134451
99,methoni,36.8197,21.7049,12.34,75,1,1.63,GR,1673134452
100,beian,63.6559,9.5683,5.05,70,75,13.38,NO,1673134453
101,mikuni,36.2171,136.1519,2.95,83,83,3.14,JP,1673134455
102,nuuk,64.1835,-51.7216,-5.07,100,100,4.02,GL,1673134456
103,north bend,43.4065,-124.2243,12.31,91,100,4.12,US,1673134457
104,salekhard,66.53,66.6019,-40.67,99,37,2.15,RU,1673134458
105,wamba,8.9333,8.6,21.78,21,15,2.24,NG,1673134460
106,saint-philippe,-21.3585,55.7679,24.77,80,38,4.71,RE,1673134461
107,katete,-0.7818,29.7544,16.75,67,94,1.66,UG,1673134462
108,sebrovo,50.0981,43.2976,-19.54,90,7,3.87,RU,1673134463
109,port alfred,-33.5906,26.891,16.77,94,55,4.46,ZA,1673134464
110,kindu,-2.95,25.95,20.47,99,100,1.22,CD,1673134466
111,bambous virieux,-20.3428,57.7575,25.14,83,40,2.06,MU,1673134467
112,chokurdakh,70.6333,147.9167,-31.1,98,100,2.15,RU,1673134468
113,ayan,56.45,138.1667,-19.44,84,40,2.03,RU,1673134469
114,half moon bay,37.4636,-122.4286,16.95,64,100,7.72,US,1673134173
115,cape coast,5.1053,-1.2466,26.24,88,10,2.88,GH,1673134471
116,chongwe,-15.3292,28.682,17.86,97,100,0.82,ZM,1673134473
117,upernavik,72.7868,-56.1549,-25.99,86,32,4.21,GL,1673134474
118,bluff,-46.6,168.3333,17.22,61,0,8.62,NZ,1673134475
119,faanui,-16.4833,-151.75,27.57,64,35,1.07,PF,1673134477
120,dikson,73.5069,80.5464,-18.9,94,100,3.83,RU,1673134479
121,khatanga,71.9667,102.5,-34.62,99,100,0.67,RU,1673134480
122,jamestown,42.097,-79.2353,1.77,72,100,3.6,US,1673134397
123,osoyoos,49.0331,-119.4524,3.42,100,100,0.0,CA,1673134224
124,mahebourg,-20.4081,57.7,25.16,83,40,2.06,MU,1673134483
125,flin flon,54.7682,-101.865,-16.09,78,20,2.06,CA,1673134233
126,luangwa,-15.6167,30.4167,21.75,96,100,0.6,ZM,1673134455
127,severo-kurilsk,50.6789,156.125,-3.15,64,91,8.75,RU,1673134486
128,castro,-24.7911,-50.0119,15.15,88,68,3.88,BR,1673134488
129,yellowknife,62.456,-114.3525,-12.71,92,100,3.09,CA,1673134200
130,tessalit,20.1986,1.0114,17.99,16,100,4.56,ML,1673134490
131,suez,29.9737,32.5263,12.89,63,1,0.68,EG,1673134491
132,hamilton,39.1834,-84.5333,3.73,72,0,3.6,US,1673134223
133,torbay,47.6666,-52.7314,-0.79,85,75,2.68,CA,1673134493
134,roma,43.2128,-75.4557,0.4,82,0,4.63,US,1673134278
135,ushumun,52.7833,126.5333,-24.44,100,97,1.18,RU,1673134496
136,lata,40.1629,-8.3327,14.34,98,100,2.52,PT,1673134497
137,atar,20.5169,-13.0499,19.44,19,100,4.95,MR,1673134498
138,hasaki,35.7333,140.8333,2.9,57,4,3.7,JP,1673134499
139,sur,22.5667,59.5289,19.98,72,0,1.86,OM,1673134500
140,lebu,-37.6167,-73.65,15.93,83,25,3.59,CL,1673134502
141,hilo,19.7297,-155.09,31.82,63,20,4.12,US,1673134503
142,vao,-22.6667,167.4833,25.92,87,96,6.2,NC,1673134504
143,hovd,48.0056,91.6419,-12.03,73,3,1.67,MN,1673134505
144,srednekolymsk,67.45,153.6833,-37.87,97,100,4.01,RU,1673134507
145,petropavlovsk-kamchatskiy,53.0452,158.6483,-16.67,60,0,6.0,RU,1673134508
146,pacifica,37.6138,-122.4869,16.45,68,100,13.89,US,1673134434
147,kjollefjord,70.9457,27.3465,-7.97,79,42,8.23,NO,1673134510
148,heihe,50.2441,127.4902,-25.34,100,95,1.16,CN,1673134511
149,esperance,-33.8667,121.9,18.36,59,0,3.24,AU,1673134513
150,saskylakh,71.9167,114.0833,-35.62,98,99,1.55,RU,1673134514
151,coihaique,-45.5752,-72.0662,18.34,72,75,1.54,CL,1673134515
152,pevek,69.7008,170.3133,-24.56,97,100,2.39,RU,1673134516
153,tiksi,71.6872,128.8694,-40.33,100,77,1.22,RU,1673134518
154,hirara,24.8,125.2833,17.92,67,75,4.63,JP,1673134519
155,port hardy,50.6996,-127.4199,9.1,81,75,1.54,CA,1673134520
156,burns lake,54.2331,-125.7533,-3.32,93,100,1.0,CA,1673134521
157,sitka,57.0531,-135.33,8.94,61,100,9.77,US,1673134523
158,paka,4.6374,103.4368,23.96,94,40,0.0,MY,1673134524
159,almaznyy,48.0448,40.045,-13.5,73,0,2.96,RU,1673134525
160,bethel,41.3712,-73.414,4.72,72,75,0.89,US,1673134229
161,isangel,-19.55,169.2667,31.06,84,75,3.09,VU,1673134527
162,aripuana,-9.1667,-60.6333,22.04,97,97,0.67,BR,1673134529
163,ulaangom,49.9811,92.0667,-24.56,94,76,1.03,MN,1673134530
164,praia da vitoria,38.7333,-27.0667,18.14,82,75,6.67,PT,1673134531
165,bowen,-20.0167,148.2333,27.83,67,99,5.24,AU,1673134532
166,isla vista,34.4133,-119.861,18.33,56,0,3.09,US,1673134449
167,norden,53.6,7.2,9.99,91,100,1.34,DE,1673134535
168,vila franca do campo,37.7167,-25.4333,17.23,92,100,7.09,PT,1673134536
169,cayenne,4.9333,-52.3333,23.02,94,75,0.0,GF,1673134327
170,alofi,-19.0595,-169.9187,28.94,79,100,5.14,NU,1673134538
171,tahta,26.7693,31.5021,12.77,54,78,3.03,EG,1673134539
172,trelew,-43.249,-65.3051,22.64,58,72,6.81,AR,1673134541
173,kaitangata,-46.2817,169.8464,17.46,57,0,6.16,NZ,1673134543
174,husavik,66.0449,-17.3389,1.89,100,100,6.48,IS,1673134544
175,chapais,49.7834,-74.8492,-13.12,100,98,1.98,CA,1673134545
176,izhma,65.0083,53.9113,-40.92,100,53,1.4,RU,1673134547
177,luau,-10.7073,22.2247,17.2,98,100,1.49,AO,1673134549
178,rybinsk,58.0446,38.8426,-16.81,96,91,3.73,RU,1673134550
179,clyde river,70.4692,-68.5914,-30.87,69,0,1.54,CA,1673134551
180,salalah,17.0151,54.0924,23.05,73,40,2.57,OM,1673134552
181,kaitong,44.8135,123.15,-8.25,65,100,3.02,CN,1673134553
182,touros,-5.1989,-35.4608,26.24,78,91,5.49,BR,1673134447
183,mangrol,21.1167,70.1167,22.11,72,0,3.21,IN,1673134556
184,semey,50.4111,80.2275,-5.69,83,76,7.03,KZ,1673134557
185,wanning,18.8003,110.3967,19.18,92,100,3.88,CN,1673134558
186,lompoc,34.6391,-120.4579,17.79,61,75,6.17,US,1673134373
187,henties bay,-22.116,14.2845,17.74,79,15,2.88,NA,1673134560
188,murray bridge,-35.1167,139.2667,35.62,20,0,6.08,AU,1673134562
189,grindavik,63.8424,-22.4338,0.97,74,20,6.17,IS,1673134563
190,marzuq,14.4,46.4667,15.34,75,1,1.42,YE,1673134564
191,faya,18.3851,42.4509,8.29,82,1,0.06,SA,1673134566
192,aleksandrovka,46.8383,32.7612,-4.25,46,34,3.63,UA,1673134567
193,mananara,-16.1667,49.7667,23.62,92,34,1.39,MG,1673134568
194,youkounkoun,12.5333,-13.1333,26.54,20,99,2.53,GN,1673134569
195,soyo,-6.1349,12.3689,25.57,86,100,1.37,AO,1673134571
196,phuthaditjhaba,-28.5242,28.8158,10.43,95,85,1.12,ZA,1673134573
197,komsomolskiy,40.4272,71.7189,1.4,80,49,3.09,UZ,1673134574
198,ilulissat,69.2167,-51.1,-10.99,62,100,2.57,GL,1673134575
199,seka,17.9285,103.9552,16.67,57,88,2.01,TH,1673134576
200,san cristobal,7.7669,-72.225,22.1,89,66,0.57,VE,1673134578
201,bilma,18.6853,12.9164,17.71,30,32,3.83,NE,1673134579
202,nova olinda do norte,-3.8881,-59.0942,23.66,95,100,1.46,BR,1673134580
203,montevideo,-34.8335,-56.1674,22.84,83,0,6.69,UY,1673134526
204,mitsamiouli,-11.3847,43.2844,26.93,79,31,3.23,KM,1673134583
205,east london,-33.0153,27.9116,17.74,82,82,3.0,ZA,1673134585
206,umm lajj,25.0213,37.2685,19.95,48,20,5.02,SA,1673134586
207,port blair,11.6667,92.75,23.02,94,40,1.03,IN,1673134588
208,khani,41.9563,42.9566,-2.24,99,97,1.34,GE,1673134589
209,lufilufi,-13.8745,-171.5986,28.88,79,100,7.59,WS,1673134591
210,kerugoya,-0.4989,37.2803,13.65,83,10,2.57,KE,1673134592
211,san patricio,28.017,-97.5169,25.65,86,59,4.81,US,1673134593
212,najran,17.4924,44.1277,12.36,79,1,1.36,SA,1673134364
213,cherskiy,68.75,161.3,-30.96,97,100,2.07,RU,1673134596
214,ojinaga,29.5667,-104.4167,21.9,17,52,4.75,MX,1673134598
215,tura,25.5198,90.2201,13.38,46,0,1.79,IN,1673134599
216,angoche,-16.2325,39.9086,22.85,95,100,2.15,MZ,1673134600
217,nouadhibou,20.931,-17.0347,19.99,52,9,5.66,MR,1673134601
218,sobolevo,54.4299,31.8996,-15.51,91,99,2.38,RU,1673134602
219,san jose,37.3394,-121.895,16.93,51,75,7.72,US,1673134604
220,cap malheureux,-19.9842,57.6142,25.26,72,6,1.79,MU,1673134585
221,ponta do sol,32.6667,-17.1,18.89,73,45,2.65,PT,1673134606
222,hemnesberget,66.2333,13.6333,-2.6,87,85,6.16,NO,1673134607
223,bubaque,11.2833,-15.8333,26.4,72,100,2.89,GW,1673134608
224,fairbanks,64.8378,-147.7164,-13.02,79,100,1.54,US,1673134548
225,souillac,-20.5167,57.5167,25.21,83,40,2.06,MU,1673134611
226,ebolowa,2.9,11.15,20.33,99,81,0.94,CM,1673134612
227,santa cruz de la palma,28.6835,-17.7642,17.08,77,40,4.63,ES,1673134614
228,kirillov,59.863,38.3813,-16.83,97,96,2.39,RU,1673134615
229,namibe,-15.1961,12.1522,21.1,70,94,3.59,AO,1673134617
230,barcelos,41.5388,-8.6151,14.08,93,100,4.66,PT,1673134618
231,tasiilaq,65.6145,-37.6368,-8.91,58,51,3.69,GL,1673134619
232,jiazi,22.8779,116.067,16.35,56,100,8.23,CN,1673134620
233,nangong,37.3581,115.3744,0.33,35,26,2.9,CN,1673134621
234,inuvik,68.3499,-133.7218,-16.44,85,75,1.03,CA,1673134623
235,kangaatsiaq,68.3065,-53.4641,-16.05,99,94,2.8,GL,1673134624
236,sao luis,-2.5297,-44.3028,28.11,78,40,3.09,BR,1673134625
237,mount isa,-20.7333,139.5,25.87,89,40,2.57,AU,1673134626
238,nanortalik,60.1432,-45.2371,-5.22,74,68,3.03,GL,1673134596
239,lakefield,43.6775,-95.1717,-11.84,82,0,2.06,US,1673134558
240,paamiut,61.994,-49.6678,-3.53,96,100,3.1,GL,1673134630
241,jaisalmer,26.9147,70.9181,13.71,11,82,3.73,IN,1673134631
242,bandarbeyla,9.4942,50.8122,24.32,78,20,6.97,SO,1673134448
243,kargil,34.5667,76.1,-11.02,95,99,0.42,IN,1673134633
244,buraydah,26.326,43.975,9.25,50,61,2.54,SA,1673134600
245,omama,36.4333,139.2833,4.14,52,20,1.98,JP,1673134636
246,itarema,-2.9248,-39.9167,26.41,78,0,7.21,BR,1673134520
247,pitimbu,-7.4706,-34.8086,27.33,77,66,4.89,BR,1673134639
248,longhua,23.6137,114.1919,15.84,53,97,0.11,CN,1673134640
249,talara,-4.5772,-81.2719,23.42,68,40,6.17,PE,1673134641
250,korla,41.7597,86.1469,-2.83,43,23,2.2,CN,1673134642
251,hobyo,5.3505,48.5268,25.04,77,5,7.45,SO,1673134644
252,khandyga,62.6667,135.6,-47.9,100,64,0.49,RU,1673134645
253,la romana,18.4273,-68.9728,26.2,89,40,0.0,DO,1673134646
254,rawson,-43.3002,-65.1023,20.95,68,77,5.84,AR,1673134363
255,comodoro rivadavia,-45.8667,-67.5,29.92,25,0,4.63,AR,1673134510
256,katsuura,35.1333,140.3,8.45,51,1,3.83,JP,1673134369
257,sola,-13.8833,167.55,27.82,76,100,5.97,VU,1673134651
258,buala,-8.145,159.5921,29.42,67,98,3.12,SB,1673134653
259,salinas,36.6777,-121.6555,16.02,50,100,8.75,US,1673134655
260,egvekinot,66.3167,-179.1667,-23.95,89,23,3.47,RU,1673134656
261,wuda,39.4994,106.7117,-2.45,34,3,0.78,CN,1673134657
262,yerazgavors,40.7,43.75,-4.57,63,33,0.51,AM,1673134659
263,abnub,27.2696,31.1511,13.12,55,58,2.23,EG,1673134661
264,oistins,13.0667,-59.5333,26.05,89,40,8.23,BB,1673134662
265,andenes,69.3143,16.1194,-2.01,54,100,11.32,NO,1673134663
266,cidreira,-30.1811,-50.2056,22.12,74,8,6.55,BR,1673134664
267,santa maria,-29.6842,-53.8069,25.61,50,0,4.12,BR,1673134374
268,zhigansk,66.7697,123.3711,-29.64,98,100,3.05,RU,1673134667
269,huarmey,-10.0681,-78.1522,21.52,77,15,3.1,PE,1673134668
270,cardonal,20.6,-99.1333,16.86,42,0,3.75,MX,1673134669
271,saint george,37.1041,-113.5841,12.46,60,0,1.54,US,1673134526
272,praia,14.9215,-23.5087,22.3,78,75,8.75,CV,1673134671
273,mehamn,71.0357,27.8492,-10.03,79,28,8.23,NO,1673134673
274,pokhara,28.2333,83.9833,12.1,16,0,2.72,NP,1673134674
275,ostrovnoy,68.0531,39.5131,-11.12,94,100,2.54,RU,1673134596
276,hammerfest,70.6634,23.6821,-10.75,73,75,5.14,NO,1673134676
277,kinablangan,7.6947,126.5503,23.73,90,100,3.34,PH,1673134594
278,watertown,42.3709,-71.1828,4.92,78,40,6.69,US,1673134567
279,pacific grove,36.6177,-121.9166,15.79,61,100,7.6,US,1673134679
280,orange cove,36.6244,-119.3137,16.91,51,100,2.57,US,1673134681
281,naco,31.3347,-109.9483,17.45,27,9,1.06,MX,1673134682
282,eqbaliyeh,35.3022,51.5358,6.9,49,42,3.51,IR,1673134683
283,weligama,5.9667,80.4167,22.74,91,76,1.58,LK,1673134684
284,arman,59.7,150.1667,-20.55,96,100,2.66,RU,1673134686
285,pitkyaranta,61.5734,31.4792,-11.98,92,100,2.69,RU,1673134687
286,arraial do cabo,-22.9661,-42.0278,21.39,88,100,4.32,BR,1673134595
287,emerald,-23.5333,148.1667,27.41,63,61,4.25,AU,1673134490
288,guerrero negro,27.9769,-114.0611,19.32,42,0,3.85,MX,1673134691
289,cabo san lucas,22.8909,-109.9124,26.61,73,0,2.06,MX,1673134692
290,lorengau,-2.0226,147.2712,28.96,69,94,1.32,PG,1673134694
291,buchanan,5.8808,-10.0467,25.61,85,9,2.84,LR,1673134695
292,chany,55.3121,76.7647,-1.95,93,100,7.44,RU,1673134696
293,lumeje,-11.55,20.7833,17.95,97,86,1.99,AO,1673134697
294,lagoa,39.05,-27.9833,16.11,89,98,11.61,PT,1673134699
295,qaanaaq,77.484,-69.3632,-23.18,98,100,1.54,GL,1673134700
296,kununurra,-15.7667,128.7333,27.99,78,2,3.6,AU,1673134701
297,caravelas,-17.7125,-39.2481,23.94,94,91,2.05,BR,1673134702
298,mar del plata,-38.0023,-57.5575,22.83,89,0,8.49,AR,1673134705
299,golden,39.7555,-105.2211,4.83,59,20,3.09,US,1673134618
300,ulladulla,-35.35,150.4667,19.82,56,76,3.46,AU,1673134707
301,lazaro cardenas,17.9583,-102.2,26.83,66,0,3.12,MX,1673134608
302,palmer,42.1584,-72.3287,4.02,70,0,4.12,US,1673134709
303,itoman,26.1247,127.6694,15.01,73,20,2.57,JP,1673134710
304,acajutla,13.5928,-89.8275,25.86,63,7,2.82,SV,1673134712
305,silver city,32.7701,-108.2803,12.98,21,0,2.57,US,1673134713
306,rantepao,-2.9701,119.8978,21.92,89,100,0.65,ID,1673134714
307,kalangala,-0.3089,32.225,22.07,59,56,2.05,UG,1673134715
308,kruisfontein,-34.0033,24.7314,18.82,85,38,2.4,ZA,1673134717
309,kloulklubed,7.0419,134.2556,24.28,75,100,6.26,PW,1673134718
310,moree,-29.4667,149.85,27.54,43,0,2.57,AU,1673134720
311,markova,48.6758,24.4138,0.79,92,67,1.31,UA,1673134721
312,crestview,30.7621,-86.5705,17.84,62,0,3.09,US,1673134722
313,brae,60.3964,-1.353,8.04,82,72,11.26,GB,1673134596
314,eggenstein-leopoldshafen,49.0953,8.3906,10.14,80,94,1.99,DE,1673134725
315,forbes,-33.3833,148.0167,26.48,30,0,1.7,AU,1673134726
316,medea,36.2642,2.7539,5.91,56,1,1.8,DZ,1673134727
317,bud,39.447,-86.1758,2.04,79,0,3.18,US,1673134728
318,qaqortoq,60.7167,-46.0333,-10.51,68,85,4.15,GL,1673134730
319,inta,66.0317,60.1659,-37.59,97,15,2.42,RU,1673134731
320,praxedis guerrero,31.3667,-106.0167,15.7,28,73,0.75,MX,1673134733
321,turbiv,49.3479,28.7212,-3.71,88,98,4.98,UA,1673134734
322,clonakilty,51.6231,-8.8706,6.56,80,94,11.03,IE,1673134736
323,malaya purga,56.5567,53.0043,-29.49,100,88,1.98,RU,1673134737
324,carbonia,39.1672,8.5222,7.78,88,6,0.21,IT,1673134738
325,meulaboh,4.1363,96.1285,23.57,87,99,1.16,ID,1673134673
326,balkhash,46.844,74.9804,0.52,96,100,5.54,KZ,1673134740
327,mahanje,-9.9333,35.3333,17.77,97,100,1.21,TZ,1673134742
328,camacha,33.0833,-16.3333,16.68,82,20,3.6,PT,1673134743
329,chimbote,-9.0853,-78.5783,20.57,79,6,2.94,PE,1673134744
330,olginskaya,47.1879,39.9492,-17.5,67,1,2.69,RU,1673134746
331,waingapu,-9.6567,120.2641,27.81,69,69,5.32,ID,1673134747
332,sibolga,1.7427,98.7792,22.94,89,96,1.46,ID,1673134749
333,killybegs,54.6333,-8.45,6.79,76,66,14.29,IE,1673134750
334,long beach,33.767,-118.1892,20.46,64,0,2.57,US,1673134739
335,viransehir,37.2353,39.7631,3.58,93,10,1.57,TR,1673134753
336,rorvik,64.8621,11.2373,1.06,86,100,6.69,NO,1673134755
337,merksplas,51.3589,4.8627,10.95,84,100,4.02,BE,1673134757
338,sassandra,4.95,-6.0833,25.77,86,50,3.64,CI,1673134758
339,taltal,-25.4,-70.4833,21.32,66,14,1.52,CL,1673134759
340,xinyang,32.1228,114.0656,8.21,51,0,2.65,CN,1673134760
341,obo,5.3998,26.4869,20.69,33,28,2.47,CF,1673134761
342,puerto baquerizo moreno,-0.9,-89.6,22.82,85,30,4.33,EC,1673134763
343,erzin,36.9559,36.2,8.55,66,0,1.72,TR,1673134764
344,kanniyakumari,8.0833,77.5667,24.47,77,1,9.73,IN,1673134765
345,tecolutla,20.4833,-97.0167,26.92,84,2,3.62,MX,1673134768
346,puerto maldonado,-12.6,-69.1833,29.22,58,0,0.0,PE,1673134770
347,roald,62.5833,6.1333,10.08,62,100,4.12,NO,1673134771
348,port lincoln,-34.7333,135.8667,24.68,52,40,4.54,AU,1673134753
349,whitehorse,60.7161,-135.0538,-10.57,85,75,2.06,CA,1673134486
350,abu zabad,12.35,29.25,16.03,33,16,4.95,SD,1673134774
351,devavanya,47.0333,20.9667,5.39,89,39,1.76,HU,1673134775
352,fukue,32.6881,128.8419,5.2,75,20,1.54,JP,1673134777
353,kirs,59.3388,52.2447,-29.89,100,97,2.04,RU,1673134662
354,samarai,-10.6167,150.6667,28.22,73,99,1.06,PG,1673134779
355,naze,28.3667,129.4833,12.51,61,1,3.98,JP,1673134780
356,iqaluit,63.7506,-68.5145,-26.15,76,75,10.8,CA,1673134781
357,te anau,-45.4167,167.7167,20.59,51,18,1.32,NZ,1673134783
358,waipawa,-41.4122,175.5153,12.15,89,100,5.78,NZ,1673134784
359,vostok,46.4856,135.8833,-19.34,84,47,1.29,RU,1673134531
360,victoria,22.2855,114.1577,19.58,56,100,2.68,HK,1673134677
361,olafsvik,64.8945,-23.7142,1.39,77,100,13.03,IS,1673134787
362,kimbe,-5.5502,150.1429,29.68,74,79,1.3,PG,1673134788
363,sisimiut,66.9395,-53.6735,-10.7,80,99,3.52,GL,1673134789
364,dingle,10.9995,122.6711,24.13,84,100,5.68,PH,1673134792
365,diffa,13.3154,12.6113,17.82,25,17,4.4,NE,1673134793
366,coquimbo,-29.9533,-71.3436,19.85,77,0,4.63,CL,1673134794
367,kodinsk,58.6881,99.1844,-20.62,97,93,1.6,RU,1673134681
368,kiunga,-6.1219,141.2906,29.01,68,100,0.6,PG,1673134742
369,muzhi,65.3667,64.6667,-40.36,99,71,3.02,RU,1673134797
370,znin,52.8496,17.7199,5.62,89,95,4.63,PL,1673134799
371,gamba,-2.65,10.0,24.54,88,100,2.12,GA,1673134672
372,sakakah,29.9697,40.2064,9.76,60,100,1.82,SA,1673134802
373,payo,-3.7508,103.6372,22.82,93,96,0.23,ID,1673134803
374,avera,33.194,-82.5271,12.73,54,3,0.94,US,1673134684
375,ancud,-41.8697,-73.8203,15.48,89,100,2.24,CL,1673134805
376,pabianice,51.6645,19.3547,4.02,97,38,2.24,PL,1673134807
377,scarborough,54.2797,-0.4044,6.85,86,59,6.26,GB,1673134510
378,codrington,-38.2667,141.9667,31.71,25,0,5.56,AU,1673134520
379,bashtanka,47.4072,32.4387,-4.9,49,44,3.67,UA,1673134810
380,mount darwin,-16.7725,31.5838,18.64,94,100,1.46,ZW,1673134811
381,luebo,-5.35,21.4167,20.63,98,98,0.88,CD,1673134675
382,gladstone,-23.85,151.25,26.96,57,40,4.12,AU,1673134814
383,ustrzyki dolne,49.4304,22.5938,0.63,100,39,1.93,PL,1673134815
384,tynset,62.2759,10.7824,-0.21,98,100,5.64,NO,1673134816
385,morondava,-20.2833,44.2833,25.88,81,31,2.57,MG,1673134818
386,yangjiang,21.85,111.9667,17.34,70,100,2.37,CN,1673134808
387,dunedin,-45.8742,170.5036,15.45,95,0,6.95,NZ,1673134602
388,alfatar,43.95,27.2833,4.23,79,56,1.52,BG,1673134822
389,kahului,20.8947,-156.47,28.01,57,0,6.69,US,1673134815
390,leningradskiy,69.3833,178.4167,-28.77,96,86,2.4,RU,1673134824
391,xapuri,-10.6517,-68.5044,24.49,80,60,1.45,BR,1673134825
392,kleive,62.7954,7.6359,8.18,81,40,7.72,NO,1673134828
393,college,64.8569,-147.8028,-13.03,78,100,1.54,US,1673134581
394,aykhal,66.0,111.5,-42.67,100,100,1.98,RU,1673134830
395,muros,42.7762,-9.0603,12.83,93,100,7.92,ES,1673134832
396,harper,4.375,-7.7169,26.18,84,29,3.39,LR,1673134834
397,gat,31.61,34.7642,12.44,100,2,1.96,IL,1673134835
398,porto recanati,43.4365,13.6613,12.77,62,41,3.04,IT,1673134836
399,talnakh,69.4865,88.3972,-37.11,99,100,4.07,RU,1673134837
400,asuncion,-25.3007,-57.6359,29.94,39,0,3.09,PY,1673134840
401,raahe,64.6833,24.4833,-10.95,91,100,6.86,FI,1673134841
402,mega,4.05,38.3,16.62,51,4,4.19,ET,1673134842
403,matamoros,25.5333,-103.25,22.43,19,0,3.67,MX,1673134844
404,chapleau,47.8405,-83.4034,-14.95,85,0,1.03,CA,1673134846
405,kalmunai,7.4167,81.8167,23.89,89,78,3.92,LK,1673134847
406,eureka,40.8021,-124.1637,14.34,73,100,2.68,US,1673134848
407,manaure,11.7751,-72.4445,26.86,70,32,7.87,CO,1673134850
408,springbok,-29.6643,17.8865,20.39,28,0,2.95,ZA,1673134851
409,manuk mangkaw,4.8,119.85,27.47,75,100,3.67,PH,1673134852
410,umm kaddadah,13.6017,26.6876,13.88,36,32,5.21,SD,1673134853
411,kuytun,54.3419,101.5036,-16.76,99,97,2.63,RU,1673134855
412,kemi,65.8596,24.8228,-11.13,85,0,3.6,FI,1673134856
413,abu samrah,35.3029,37.1841,7.89,77,17,1.39,SY,1673134857
414,kailua,21.4022,-157.7394,28.83,66,32,1.79,US,1673134858
415,areosa,41.7178,-8.8571,13.29,89,100,6.72,PT,1673134859
416,san ramon,37.7799,-121.978,16.12,49,100,6.69,US,1673134861
417,presidencia roque saenz pena,-26.7852,-60.4388,26.24,31,0,2.22,AR,1673134862
418,vilhena,-12.7406,-60.1458,24.12,88,75,3.6,BR,1673134863
419,vestmannaeyjar,63.4427,-20.2734,0.14,72,95,4.64,IS,1673134864
420,natal,-5.795,-35.2094,27.36,78,20,5.66,BR,1673134569
421,leh,34.1667,77.5833,-9.96,83,92,1.64,IN,1673134867
422,airdrie,55.866,-3.9803,7.82,86,80,9.35,GB,1673134868
423,skibbereen,51.55,-9.2667,9.5,78,99,10.9,IE,1673134869
424,jennings,38.7192,-90.2604,4.56,76,100,4.63,US,1673134870
425,dunmore town,25.5,-76.65,22.99,70,79,6.41,BS,1673134872
426,casale monferrato,45.1334,8.4571,8.01,84,100,0.23,IT,1673134873
427,yulara,-25.2406,130.9889,23.6,50,89,9.34,AU,1673134874
428,aktau,43.65,51.2,-7.68,59,99,9.09,KZ,1673134875
429,acapulco,16.8634,-99.8901,28.9,61,0,5.14,MX,1673134620
430,shenjiamen,29.9576,122.298,12.16,71,0,6.56,CN,1673134878
431,cairns,-16.9167,145.7667,27.84,85,40,1.03,AU,1673134879
432,velez,6.0134,-73.6735,13.05,99,96,0.69,CO,1673134880
433,kallaste,58.655,27.1592,-15.87,86,12,5.43,EE,1673134881
434,gravdal,68.1214,13.5031,-2.95,68,39,9.43,NO,1673134884
435,ahipara,-35.1667,173.1667,23.79,67,5,2.67,NZ,1673134885
436,sangar,63.9242,127.4739,-30.35,88,100,3.56,RU,1673134886
437,pandharpur,17.6667,75.3333,18.35,51,0,2.48,IN,1673134887
438,nerja,36.7585,-3.8873,14.84,80,78,3.13,ES,1673134888
439,thiene,45.7088,11.4796,10.11,85,91,0.27,IT,1673134890
440,ouadda,8.0777,22.4007,17.83,31,53,2.62,CF,1673134891
441,olinda,-8.0089,-34.8553,26.85,69,20,3.09,BR,1673134312
442,sechelt,49.4664,-123.7694,8.38,93,100,2.19,CA,1673134893
443,shache,38.4167,77.2406,-4.21,42,64,0.5,CN,1673134894
444,tabas,33.5959,56.9244,5.12,65,1,0.0,IR,1673134896
445,vanavara,60.34,102.2797,-28.71,99,86,2.06,RU,1673134897
446,innisfail,-17.5333,146.0333,25.27,89,100,1.12,AU,1673134898
447,nizwa,22.9333,57.5333,16.4,73,0,0.61,OM,1673134899
448,mount gambier,-37.8333,140.7667,31.58,22,0,4.22,AU,1673134901
449,shadegan,30.6497,48.6647,9.97,66,0,1.39,IR,1673134902
450,xichang,27.8964,102.2634,5.16,84,2,0.5,CN,1673134903
451,ca mau,9.1769,105.15,20.9,79,100,2.76,VN,1673134904
452,issoudun,47.0,1.8333,8.83,93,100,5.14,FR,1673134905
453,moussoro,13.6408,16.4901,18.09,21,67,4.98,TD,1673134907
454,porto walter,-8.2686,-72.7439,22.69,87,57,0.63,BR,1673134908
455,sawtell,-30.3833,153.1,25.1,60,61,6.69,AU,1673134909
456,merauke,-8.4667,140.3333,27.31,80,100,3.28,ID,1673134910
457,schruns,47.0709,9.9475,0.89,100,97,3.97,AT,1673134912
458,vila,42.0304,-8.1588,5.39,94,100,3.56,PT,1673134913
459,daru,-9.0763,143.2092,27.48,76,100,2.85,PG,1673134914
460,gotsu,35.0,132.2167,8.9,65,90,4.37,JP,1673134915
461,kautokeino,69.0125,23.0412,-16.02,96,100,3.64,NO,1673134917
462,baringo,0.4667,35.9667,20.17,56,17,3.24,KE,1673134918
463,coahuayana,18.7333,-103.6833,26.37,66,0,1.74,MX,1673134919
464,dalby,-27.1833,151.2667,26.9,44,13,1.07,AU,1673134920
465,flinders,-34.5833,150.8552,23.36,57,56,3.58,AU,1673134921
466,brainerd,46.358,-94.2008,-6.86,67,0,2.57,US,1673134743
467,montlucon,46.3333,2.6,8.17,93,100,1.34,FR,1673134925
468,dalianwan,39.0286,121.695,3.02,81,0,2.0,CN,1673134926
469,road town,18.4167,-64.6167,25.05,94,20,1.54,VG,1673134927
470,manakara,-22.1333,48.0167,23.32,93,8,2.4,MG,1673134928
471,denpasar,-8.65,115.2167,27.81,83,40,3.09,ID,1673134453
472,kathua,32.3667,75.5167,9.95,40,69,0.13,IN,1673134931
473,narrabri,-30.3167,149.7833,26.4,52,0,1.34,AU,1673134932
474,richards bay,-28.783,32.0377,17.58,85,46,3.34,ZA,1673134933
475,hervey bay,-25.2986,152.8535,26.68,72,45,4.47,AU,1673135045
476,the hammocks,25.6715,-80.4445,22.23,71,0,4.12,US,1673135046
477,madimba,-10.4,40.3333,25.93,83,36,2.68,TZ,1673135047
478,lalgudi,10.8667,78.8333,23.18,88,20,1.54,IN,1673135048
479,jardim,-21.4803,-56.1381,24.83,62,82,3.71,BR,1673134888
480,atambua,-9.1061,124.8925,25.25,79,97,0.98,ID,1673135051
481,harrisonburg,38.4496,-78.8689,3.67,55,0,0.0,US,1673134836
482,hofn,64.2539,-15.2082,2.3,71,100,9.45,IS,1673135053
483,vladyslavivka,45.1667,35.3667,-2.39,65,78,3.16,UA,1673135054
484,sinnamary,5.3833,-52.95,24.63,88,99,5.42,GF,1673135055
485,anqing,30.5092,117.0506,8.51,53,0,1.58,CN,1673135057
486,san jeronimo,-11.9472,-75.2829,11.35,73,83,1.85,PE,1673135058
487,perevoz,55.5961,44.5446,-20.69,97,97,4.5,RU,1673135059
488,beringovskiy,63.05,179.3167,-16.37,96,100,7.38,RU,1673135062
489,yar-sale,66.8333,70.8333,-39.68,100,75,2.94,RU,1673135063
490,vila velha,-20.3297,-40.2925,22.97,96,75,3.13,BR,1673135064
491,san policarpo,12.1791,125.5072,26.2,70,100,7.45,PH,1673135065
492,smoky lake,54.1169,-112.4686,-4.6,74,46,0.51,CA,1673135067
493,lima,-12.0432,-77.0282,24.39,69,40,5.14,PE,1673134376
494,takoradi,4.8845,-1.7554,26.33,85,14,2.67,GH,1673135069
495,gigmoto,13.7796,124.39,25.02,74,100,6.81,PH,1673135070
496,hue,16.4667,107.6,18.06,94,75,2.57,VN,1673135071
497,canar,-2.55,-78.9333,11.02,96,99,0.03,EC,1673135073
498,pisco,-13.7,-76.2167,23.03,78,0,6.17,PE,1673135074
499,vieux-habitants,16.0589,-61.7659,24.76,83,59,5.53,GP,1673135075
500,banda aceh,5.5577,95.3222,24.88,81,100,0.94,ID,1673135076
501,afrikanda,67.4429,32.7828,-23.39,100,93,0.31,RU,1673135077
502,biratnagar,26.4831,87.2834,9.6,66,0,3.26,NP,1673135079
503,srandakan,-7.9386,110.2506,25.51,82,64,1.35,ID,1673135080
504,odienne,9.51,-7.5692,24.19,28,12,2.25,CI,1673135081
505,pauini,-7.7136,-66.9764,23.08,91,90,0.53,BR,1673135082
506,mocuba,-16.8392,36.9856,22.27,98,100,1.11,MZ,1673135084
507,guane,22.2025,-84.0875,22.59,83,34,3.44,CU,1673135085
508,iisalmi,63.5592,27.1907,-10.73,90,100,3.83,FI,1673135086
509,monte alegre de minas,-18.8706,-48.8808,18.52,93,92,2.3,BR,1673135087
510,kalemie,-5.9475,29.1947,19.43,87,90,3.26,CD,1673134973
511,labytnangi,66.6572,66.4183,-38.89,99,24,1.74,RU,1673135090
512,nakhon thai,17.1006,100.8374,18.93,65,36,1.18,TH,1673135091
513,gao,16.6362,1.637,20.63,22,5,4.83,ML,1673135092
514,ust-tsilma,65.441,52.1498,-40.99,100,59,1.25,RU,1673135093
515,adrar,20.5022,-10.0711,18.3,18,100,5.14,MR,1673135094
516,estelle,29.8458,-90.1067,21.0,63,20,3.09,US,1673135096
517,bilibino,68.0546,166.4372,-30.86,100,99,0.5,RU,1673135097
518,dondo,-19.6094,34.7431,21.72,94,100,3.66,MZ,1673135098
519,marshall,34.3834,-86.3333,13.99,69,100,1.54,US,1673135099
520,mizan teferi,6.9833,35.5833,17.08,64,9,0.75,ET,1673135100
521,edd,13.9297,41.6925,24.87,79,0,1.98,ER,1673135102
522,acari,-15.4311,-74.6158,23.24,74,6,1.97,PE,1673135103
523,palembang,-2.9167,104.7458,24.05,94,75,0.0,ID,1673135104
524,haines junction,60.7522,-137.5108,-7.52,97,100,0.45,CA,1673135106
525,monastyrshchina,54.3496,31.838,-15.54,91,100,2.37,RU,1673135107
526,okhotsk,59.3833,143.3,-30.28,83,6,6.12,RU,1673135108
527,manta,-0.95,-80.7333,26.88,74,75,5.66,EC,1673135110
528,abu kamal,34.4506,40.9171,8.96,82,16,2.93,SY,1673135111
529,inongo,-1.95,18.2667,22.71,92,100,2.67,CD,1673135112
530,joensuu,62.6012,29.7632,-14.73,85,0,3.09,FI,1673135113
531,chumikan,54.7183,135.315,-16.01,86,100,7.14,RU,1673135115
532,solnechnyy,50.7214,136.6319,-22.03,95,98,2.04,RU,1673135116
533,perry hall,39.4126,-76.4636,6.55,64,75,4.12,US,1673135117
534,paoua,7.2427,16.4406,21.16,31,91,2.08,CF,1673135118
535,montepuez,-13.1256,38.9997,20.79,96,100,1.2,MZ,1673135120
536,meiktila,20.8667,95.8667,17.35,73,1,1.2,MM,1673135121
537,mani,4.8172,-72.2886,24.65,78,90,0.19,CO,1673135122
538,tumut,-35.3,148.2167,24.86,37,0,1.88,AU,1673135123
539,geraldton,-28.7667,114.6,21.23,68,0,7.2,AU,1673135125
540,mersing,2.4312,103.8405,23.95,94,20,1.03,MY,1673135126
541,keti bandar,24.1447,67.4497,17.78,21,0,5.43,PK,1673135127
542,vallenar,-28.5708,-70.7581,24.36,35,0,1.86,CL,1673135129
543,asau,46.4333,26.4,1.51,93,100,1.19,RO,1673135131
544,praya,14.9215,-23.5087,22.3,78,75,8.75,CV,1673135132
545,karachi,24.9056,67.0822,15.9,21,0,3.6,PK,1673135133
546,saraza,8.7356,117.78,26.59,83,99,5.82,PH,1673135134
547,tooele,40.5308,-112.2983,3.25,79,100,2.44,US,1673135121
548,ilheus,-14.7889,-39.0494,27.9,83,40,3.09,BR,1673135137
549,harnosand,62.6323,17.9379,0.0,98,100,9.77,SE,1673135138
550,saldanha,-33.0117,17.9442,17.03,86,0,3.93,ZA,1673135139
551,acayucan,17.95,-94.9167,21.52,83,6,3.0,MX,1673135141
552,rennes,48.1667,-1.6667,8.02,93,75,2.57,FR,1673135142
553,sterling,39.0062,-77.4286,6.23,55,20,5.14,US,1673134994
554,sebastian,35.1668,-94.2669,13.31,79,81,2.66,US,1673135145
555,tilichiki,60.4667,166.1,-29.8,94,56,4.84,RU,1673135147
556,bolondron,22.7633,-81.4469,24.11,85,67,5.17,CU,1673135148
557,say,13.1007,2.3689,24.31,20,11,4.14,NE,1673135149
558,alyangula,-13.8483,136.4192,28.27,76,99,7.32,AU,1673135150
559,kurumkan,54.3,110.3,-20.46,92,37,2.39,RU,1673135152
560,bairnsdale,-37.8333,147.6167,21.14,68,2,0.89,AU,1673135120
561,curup,-3.4667,102.5333,19.6,95,97,0.57,ID,1673135154
562,santa ana,33.7456,-117.8678,20.89,55,75,3.6,US,1673134967
563,hede,33.7681,120.2517,5.57,61,0,3.38,CN,1673135156
564,asfi,32.2994,-9.2372,14.66,83,32,2.72,MA,1673135157
565,teknaf,20.8624,92.3058,15.95,86,0,1.22,BD,1673135159
566,dedovichi,57.5517,29.9502,-16.1,91,55,2.74,RU,1673135160
567,astoria,46.1879,-123.8313,10.33,93,100,5.14,US,1673135120
