City_ID,City,Lat,Lng,Max Temp,Humidity,Cloudiness,Wind Speed,Country,Date
0,kysyl-syr,63.8986,122.7617,-46.92,100,68,1.34,RU,1672968704
1,nemuro,43.3236,145.575,-1.9,66,41,4.48,JP,1672955400
2,bambous virieux,-20.3428,57.7575,30.14,62,75,6.69,MU,1672968903
3,busselton,-33.65,115.3333,19.63,54,9,9.29,AU,1672953314
4,jamestown,42.097,-79.2353,1.77,72,100,1.54,US,1673009114
5,namibe,-15.1961,12.1522,23.72,68,73,5.84,AO,1672980432
6,porbandar,21.6422,69.6093,25.78,41,8,1.91,IN,1672970458
7,bilma,18.6853,12.9164,21.69,24,19,3.39,NE,1672983733
8,guarapari,-20.6667,-40.4975,24.38,92,100,0.56,BR,1672992457
9,santiago del estero,-27.7951,-64.2615,22.31,29,71,1.68,AR,1672997276
10,nsanje,-16.92,35.262,33.94,48,100,3.17,MW,1672974694
11,barrow,71.2906,-156.7887,-21.99,84,0,9.26,US,0
12,souillac,-20.5167,57.5167,30.21,62,75,6.69,MU,1672968941
13,castro,-24.7911,-50.0119,12.97,89,95,3.54,BR,1672994243
14,college,64.8569,-147.8028,-23.03,78,40,0.0,US,1673034448
15,qaanaaq,77.484,-69.3632,-22.43,97,100,3.14,GL,0
16,olden,61.8364,6.8064,3.41,86,100,6.17,NO,1672994985
17,arlit,18.7369,7.3853,24.33,16,10,3.38,NE,1672985067
18,vaini,-21.2,-175.2,26.09,94,75,4.12,TO,1673024738
19,rikitea,-23.1203,-134.9692,25.66,75,1,6.41,PF,1673014848
20,hilo,19.7297,-155.09,22.36,93,75,3.6,US,1672937763
21,labuhan,-6.8844,112.2051,27.26,81,86,4.59,ID,1672957282
22,san patricio,28.017,-97.5169,18.92,86,0,2.93,US,1673011344
23,hithadhoo,-0.6,73.0833,26.98,73,4,3.29,MV,1672967307
24,tuktoyaktuk,69.4541,-133.0374,-27.44,99,29,4.23,CA,0
25,bethel,41.3712,-73.414,5.76,88,100,1.38,US,1673007582
26,mumford,5.2618,-0.759,28.39,66,66,3.09,GH,1672985619
27,mataura,-46.1927,168.8643,11.02,99,100,1.85,NZ,1672938072
28,ust-uda,54.1742,103.0304,-15.78,96,100,1.48,RU,1672968381
29,san jose iturbide,21.0,-100.3833,6.48,87,0,1.67,MX,1673011189
30,albany,42.6001,-73.9662,4.54,93,100,1.91,US,1673007945
31,sao filipe,14.8961,-24.4956,24.13,59,99,4.35,CV,1672992304
32,georgetown,5.4112,100.3354,30.96,70,40,4.63,MY,1672961364
33,khatanga,71.9667,102.5,-46.08,100,99,2.03,RU,0
34,punta arenas,-53.15,-70.9167,10.06,62,40,1.54,CL,1672993661
35,saint-philippe,-21.3585,55.7679,31.77,77,100,6.4,RE,1672969261
36,twin falls,42.3505,-114.6445,2.74,87,100,3.6,US,1673017659
37,bobo dioulasso,11.1771,-4.2979,24.25,23,66,4.63,BF,1672987067
38,pisco,-13.7,-76.2167,19.03,94,100,1.03,PE,1673001811
39,thompson,55.7435,-97.8558,-24.14,100,90,0.25,CA,1673017134
40,adrar,20.5022,-10.0711,17.92,16,47,6.53,MR,1672989454
41,petropavlovsk-kamchatskiy,53.0452,158.6483,-15.67,78,0,3.0,RU,1672954669
42,sao joao da barra,-21.6403,-41.0511,24.05,96,100,2.69,BR,1672992475
43,kapaa,22.0752,-159.319,21.18,83,0,3.09,US,1672939046
44,port elizabeth,-33.918,25.5701,22.83,57,40,4.12,ZA,1672974828
45,manaure,11.7751,-72.4445,24.22,86,0,3.25,CO,1673003488
46,kiama,-34.6833,150.8667,18.54,84,100,0.89,AU,1672944620
47,sola,-13.8833,167.55,25.37,94,75,0.0,VU,1672943264
48,luderitz,-26.6481,15.1594,25.94,43,0,6.94,NA,1672978357
49,bestobe,52.4994,73.0975,-10.45,97,96,2.48,KZ,1672975026
50,ponta do sol,32.6667,-17.1,18.17,75,72,1.68,PT,1672992669
51,fare,-16.7,-151.0167,26.76,71,39,3.71,PF,1672933008
52,alice town,25.7167,-79.3,24.48,78,88,6.29,BS,1673006684
53,limbang,4.75,115.0,29.06,92,100,0.72,MY,1672957778
54,new norfolk,-42.7826,147.0587,16.6,58,0,0.89,AU,1672944071
55,portland,45.5234,-122.6762,9.78,90,84,3.13,US,1673020227
56,east london,-33.0153,27.9116,18.52,82,75,2.57,ZA,1672974404
57,kholodnyy,62.7167,147.95,-37.93,100,100,0.89,RU,1672961737
58,christchurch,-43.5333,172.6333,19.62,88,75,6.17,NZ,1672937770
59,aklavik,68.2191,-135.0107,-23.75,100,95,2.11,CA,1673037590
60,butaritari,3.0707,172.7902,27.23,74,84,6.54,KI,1672943736
61,pangnirtung,66.1451,-65.7125,-20.27,98,100,0.52,CA,1673016250
62,starosubkhangulovo,53.1031,57.4423,-5.17,95,100,3.25,RU,1672978970
63,itoman,26.1247,127.6694,19.01,72,75,1.54,JP,1672957056
64,hobart,-42.8794,147.3294,16.79,67,20,4.12,AU,1672943986
65,cilaos,-21.1336,55.4719,24.3,83,90,0.46,RE,1672969359
66,balkanabat,39.5108,54.3671,11.57,55,95,3.57,TM,1672976585
67,trojes,41.756,19.962,11.27,58,12,2.81,AL,1672985244
68,kodiak,57.79,-152.4072,-6.27,93,0,3.09,US,1673031043
69,samarinda,-0.5,117.15,25.37,93,89,0.75,ID,1672956738
70,chute-aux-outardes,49.1168,-68.399,-6.01,93,100,8.23,CA,1673008039
71,gazojak,41.1875,61.4036,8.21,62,85,3.07,TM,1672975194
72,bluff,-46.6,168.3333,12.16,80,100,5.65,NZ,1672938101
73,cabedelo,-6.9811,-34.8339,23.37,71,89,3.81,BR,1672992574
74,linxia,35.6003,103.2064,2.32,24,0,0.68,CN,1672964227
75,aguimes,27.9054,-15.4461,18.14,77,40,2.57,ES,1672991631
76,mar del plata,-38.0023,-57.5575,21.64,69,0,5.14,AR,1672994120
77,grindavik,63.8424,-22.4338,-4.74,86,0,3.09,IS,1673003468
78,yokadouma,3.5167,15.05,34.17,22,78,2.16,CM,1672981649
79,codrington,-38.2667,141.9667,19.84,50,0,6.91,AU,1672946158
80,puerto madryn,-42.7692,-65.0385,25.58,34,9,5.78,AR,1672995012
81,tasiilaq,65.6145,-37.6368,-9.91,53,87,2.96,GL,1673008860
82,hatillo,18.4863,-66.8254,23.38,90,28,0.89,PR,1673002853
83,chizhou,30.6578,117.4831,12.9,43,0,2.64,CN,1672960088
84,isangel,-19.55,169.2667,28.06,78,100,5.14,VU,1672942221
85,boende,-0.2167,20.8667,34.98,36,36,0.69,CD,1672979881
86,vila franca do campo,37.7167,-25.4333,16.23,88,100,6.24,PT,1672995436
87,lebu,-37.6167,-73.65,13.2,94,19,1.38,CL,1672998052
88,port alfred,-33.5906,26.891,22.32,60,100,2.24,ZA,1672974562
89,ushuaia,-54.8,-68.3,8.81,61,20,7.2,AR,1672992422
90,puerto ayora,-0.7393,-90.3518,22.53,97,61,0.89,EC,1673006529
91,yerbogachen,61.2767,108.0108,-19.67,100,97,0.72,RU,1672970363
92,kahului,20.8947,-156.47,21.01,83,0,1.54,US,1672938226
93,durango,24.8333,-104.8333,8.61,38,0,1.51,MX,1673012705
94,kisangani,0.5167,25.2,33.62,30,77,1.84,CD,1672978914
95,calama,-22.4667,-68.9333,8.27,49,0,5.14,CL,1672999071
96,yellowknife,62.456,-114.3525,-13.71,85,100,5.14,CA,1673024453
97,victoria,22.2855,114.1577,23.47,60,69,2.68,HK,1672959839
98,provideniya,64.3833,-173.3,-13.68,93,100,2.97,RU,1673040110
99,capao bonito,-24.0058,-48.3494,16.71,87,92,4.32,BR,1672993941
100,lexington park,38.2668,-76.4538,9.25,90,100,4.12,US,1673007771
101,hambantota,6.1241,81.1185,28.42,70,54,7.56,LK,1672966049
102,gurupa,-1.405,-51.64,22.04,97,69,0.97,BR,1672997169
103,hermanus,-34.4187,19.2345,22.67,52,1,7.41,ZA,1672976272
104,tuatapere,-46.1333,167.6833,11.71,95,100,2.13,NZ,1672938370
105,honiara,-9.4333,159.95,25.84,90,92,1.05,SB,1672945558
106,deputatskiy,69.3,139.9,-33.6,95,100,0.85,RU,0
107,margate,51.3813,1.3862,8.72,82,40,1.34,GB,1672991903
108,saint george,37.1041,-113.5841,6.35,93,100,0.0,US,1673016493
109,fort nelson,58.8053,-122.7002,-16.7,90,100,0.0,CA,1673024378
110,tiznit,29.5833,-9.5,15.78,29,0,0.41,MA,1672990422
111,nichinan,31.6,131.3667,9.82,74,54,3.17,JP,1672956885
112,alyangula,-13.8483,136.4192,27.01,84,100,10.2,AU,1672950742
113,jinchang,38.4953,102.1739,2.22,18,0,1.56,CN,1672964939
114,basco,20.4487,121.9702,24.03,69,91,7.04,PH,1672957753
115,atuona,-9.8,-139.0333,25.12,82,11,8.13,PF,1673017302
116,tautira,-17.7333,-149.15,26.29,77,45,2.88,PF,1672932444
117,cabo san lucas,22.8909,-109.9124,22.51,49,0,4.16,MX,1673013694
118,geraldton,-28.7667,114.6,24.23,69,40,14.4,AU,1672954197
119,xining,36.6167,101.7667,0.04,18,0,0.59,CN,1672964731
120,cape town,-33.9258,18.4232,25.62,55,20,9.77,ZA,1672976543
121,viedma,-40.8135,-62.9967,25.99,31,74,6.6,AR,1672994912
122,ubinskoye,55.3068,79.6802,-18.95,98,44,1.88,RU,1672974380
123,maloy,61.9353,5.1136,3.74,71,100,9.83,NO,1672995455
124,mangan,27.5167,88.5333,19.79,31,0,2.08,IN,1672966624
125,arraial do cabo,-22.9661,-42.0278,22.92,94,100,1.54,BR,1672992551
126,winnemucca,40.973,-117.7357,3.03,87,100,3.09,US,1673018146
127,kasongo-lunda,-6.4667,16.8167,28.48,62,99,0.44,CD,1672980226
128,areosa,41.7178,-8.8571,10.43,72,79,4.65,PT,1672992153
129,tiksi,71.6872,128.8694,-29.14,99,100,2.45,RU,0
130,progreso,21.2833,-89.6667,22.39,90,0,4.48,MX,1673008649
131,avarua,-21.2078,-159.775,23.03,94,100,4.63,CK,1672934594
132,bafoulabe,13.8065,-10.8321,26.38,14,100,3.1,ML,1672988909
133,severo-kurilsk,50.6789,156.125,-4.28,86,73,4.93,RU,1672954577
134,puksoozero,62.5903,40.6066,-22.88,95,87,2.86,RU,1672987388
135,surat,21.1667,72.8333,29.99,48,8,1.54,IN,1672969629
136,ribeira grande,38.5167,-28.7,16.54,100,75,10.8,PT,1672996352
137,jumla,29.2747,82.1838,12.41,10,0,2.75,NP,1672968376
138,mahebourg,-20.4081,57.7,30.16,62,75,6.69,MU,1672968909
139,ravar,31.2656,56.8055,14.44,30,0,1.16,IR,1672974735
140,boa vista,2.8197,-60.6733,22.99,88,0,2.06,BR,1672999758
141,sioux lookout,50.1001,-91.917,-17.96,85,40,0.0,CA,1673013938
142,muyezerskiy,63.9333,31.65,-19.48,100,89,1.42,RU,1672990578
143,duluth,46.7833,-92.1066,-12.74,89,0,2.57,US,1673013169
144,sorland,67.667,12.6934,-2.08,62,40,12.77,NO,1673000235
145,ajdabiya,30.7554,20.2263,18.02,57,97,4.01,LY,1672983445
146,dikson,73.5069,80.5464,-37.51,99,54,1.86,RU,0
147,hoa binh,20.8133,105.3383,22.22,53,65,0.97,VN,1672961787
148,chesma,53.8111,60.6533,-8.44,90,100,4.83,RU,1672978427
149,cherskiy,68.75,161.3,-47.26,100,95,0.78,RU,0
150,sedhiou,12.7081,-15.5569,27.17,14,64,3.23,SN,1672989929
151,barranca,-10.75,-77.7667,19.71,83,89,2.51,PE,1673002494
152,saint anthony,45.0205,-93.218,-13.04,90,100,0.0,US,1673013051
153,puri,19.8,85.85,27.29,42,1,1.24,IN,1672966350
154,clyde river,70.4692,-68.5914,-34.87,68,0,1.54,CA,0
155,airai,-8.9266,125.4092,17.39,86,98,1.71,TL,1672953903
156,rumphi,-11.0186,33.8575,25.31,66,100,1.52,MW,1672975666
157,bosaso,11.2842,49.1816,26.99,74,0,2.57,SO,1672974240
158,bonthe,7.5264,-12.505,27.52,65,1,1.62,SL,1672988666
159,wellington,-41.2866,174.7756,20.32,95,75,5.14,NZ,1672937717
160,belaya gora,68.5333,146.4167,-37.34,97,100,0.86,RU,0
161,vao,-22.6667,167.4833,25.9,88,100,7.07,NC,1672942281
162,san marcos de colon,13.4333,-86.8,13.46,94,9,2.56,HN,1673007106
163,port blair,11.6667,92.75,29.02,74,40,3.09,IN,1672963821
164,capelinha,-17.6914,-42.5158,18.46,98,100,1.87,BR,1672993282
165,saldanha,-33.0117,17.9442,27.03,58,1,8.16,ZA,1672976798
166,la rioja,42.25,-2.5,8.42,42,7,0.32,ES,1672990727
167,salvador,13.8333,-88.9167,20.22,92,3,1.68,SV,1673007656
168,hofn,64.2539,-15.2082,-0.99,69,20,2.06,IS,1673002093
169,santa maria,-29.6842,-53.8069,16.61,100,0,1.03,BR,1672994509
170,kytmanovo,53.4593,85.4479,0.56,98,100,7.07,RU,1672972364
171,broome,42.2506,-75.833,3.53,89,75,0.89,US,1673008326
172,alofi,-19.0595,-169.9187,25.94,83,100,3.6,NU,1672937280
173,klaksvik,62.2266,-6.589,3.51,94,100,12.06,FO,1672998454
174,almetyevsk,54.9044,52.3154,-14.79,94,100,4.25,RU,1672980801
175,praia,14.9215,-23.5087,22.3,78,0,8.23,CV,1672992070
176,carnarvon,-24.8667,113.6333,24.98,80,34,7.31,AU,1672954939
177,iqaluit,63.7506,-68.5145,-30.15,67,40,7.2,CA,1673014439
178,pevek,69.7008,170.3133,-31.65,93,100,1.8,RU,0
179,toowoomba,-27.55,151.9667,19.58,79,21,3.13,AU,1672945388
180,norman wells,65.282,-126.8329,-21.98,84,75,0.0,CA,1673029862
181,muzhi,65.3667,64.6667,-26.77,98,100,4.66,RU,1672984058
182,longyearbyen,78.2186,15.6401,-1.09,86,75,1.03,SJ,0
183,cananea,30.95,-110.3,5.67,41,64,1.37,MX,1673014800
184,tual,-5.6667,132.75,28.58,78,100,7.68,ID,1672952474
185,ailigandi,9.2333,-78.0167,25.22,81,4,3.53,PA,1673004565
186,chokurdakh,70.6333,147.9167,-45.09,100,98,1.25,RU,0
187,tobane,-21.95,27.9,31.48,39,98,2.93,BW,1672975882
188,khor,47.8861,134.9464,-27.1,100,7,1.6,RU,1672958942
189,bereda,43.2686,-7.5406,6.75,96,24,1.4,ES,1672992134
190,lerwick,60.1545,-1.1494,9.0,88,92,10.73,GB,1672995903
191,vestmannaeyjar,63.4427,-20.2734,2.55,87,75,10.29,IS,1673002624
192,alpatovo,43.7028,45.2415,7.6,59,73,2.38,RU,1672979553
193,santana do livramento,-30.8908,-55.5328,18.9,68,0,3.65,BR,1672994754
194,hvide sande,56.0045,8.1294,7.03,100,75,2.57,DK,1672991806
195,chuy,-33.6971,-53.4616,19.77,76,5,2.66,UY,1672993841
196,gobabis,-22.45,18.9667,26.46,22,81,3.77,NA,1672977967
197,prabumulih,-3.45,104.25,28.35,79,98,1.45,ID,1672959539
198,tarakan,3.3,117.6333,26.72,89,100,2.57,ID,1672957001
199,thaton,16.9206,97.3714,29.61,48,82,2.9,MM,1672963267
200,dhidhdhoo,6.8833,73.1,26.69,67,7,4.25,MV,1672968051
201,bredasdorp,-34.5322,20.0403,22.98,38,4,5.96,ZA,1672976060
202,dali,25.7,100.1833,14.31,50,9,2.32,CN,1672963601
203,skegness,53.1436,0.3363,7.41,85,27,7.36,GB,1672992684
204,port hardy,50.6996,-127.4199,7.1,100,100,3.09,CA,1673022618
205,farah,32.5,62.5,15.07,22,58,0.51,AF,1672973540
206,varhaug,58.6147,5.6457,4.94,84,100,5.65,NO,1672993502
207,palu,-0.8917,119.8707,26.61,86,97,0.64,ID,1672956045
208,turukhansk,65.8167,87.9833,-41.18,99,34,1.52,RU,1672978999
209,katsuura,35.1333,140.3,8.05,55,80,3.14,JP,1672955253
210,akhaldaba,41.654,42.1516,7.31,65,88,1.51,GE,1672979900
211,santa rosa,14.3122,121.1114,26.12,84,96,6.94,PH,1672957289
212,mufulira,-12.5498,28.2407,20.59,90,100,2.9,ZM,1672976853
213,caravelas,-17.7125,-39.2481,25.5,82,100,3.34,BR,1672992495
214,polunochnoye,60.8697,60.4153,-24.39,96,99,2.07,RU,1672981537
215,nadym,65.5333,72.5167,-28.02,89,100,5.13,RU,1672982366
216,south lake tahoe,38.9332,-119.9844,-2.03,83,40,4.63,US,1673018329
217,ternate,0.8,127.4,27.84,79,91,5.26,ID,1672954406
218,dickson,36.077,-87.3878,1.69,89,75,0.0,US,1673010044
219,cerveteri,41.9926,12.0924,14.03,85,97,2.53,IT,1672987177
220,cap malheureux,-19.9842,57.6142,28.59,61,100,4.47,MU,1672968979
221,bubaque,11.2833,-15.8333,24.65,44,12,4.87,GW,1672989847
222,gazimurskiy zavod,51.5461,118.3266,-21.67,98,100,1.29,RU,1672963892
223,xichang,27.8964,102.2634,13.41,52,15,0.35,CN,1672963377
224,san quintin,30.4833,-115.95,13.89,88,0,5.09,MX,1673016092
225,chiredzi,-21.05,31.6667,36.06,32,100,2.06,ZW,1672975085
226,avera,33.194,-82.5271,5.86,71,0,3.44,US,1673008447
227,sampit,-2.5333,112.95,25.59,89,97,2.12,ID,1672957543
228,naze,28.3667,129.4833,13.51,83,100,0.63,JP,1672956904
229,hongjiang,27.11,109.9956,13.65,59,0,1.68,CN,1672961421
230,waspan,14.7419,-83.9717,20.43,98,23,2.24,NI,1673006565
231,lishui,28.4604,119.9103,12.47,77,16,1.51,CN,1672959214
232,narsaq,60.9167,-46.05,-0.88,61,80,5.09,GL,1673007099
233,maniitsoq,65.4167,-52.9,-7.77,59,100,3.49,GL,1673012291
234,lasa,46.6166,10.7002,5.49,53,65,0.78,IT,1672988461
235,touros,-5.1989,-35.4608,27.24,67,45,4.75,BR,1672992905
236,benguela,-12.5763,13.4055,27.09,69,100,2.85,AO,1672980412
237,sandnessjoen,66.0217,12.6316,-4.64,57,20,5.66,NO,1672997316
238,lufilufi,-13.8745,-171.5986,23.88,86,100,10.61,WS,1673024693
239,chifeng,42.2683,118.9636,-5.35,49,5,2.58,CN,1672961581
240,raton,36.9034,-104.4391,-1.66,40,0,1.54,US,1673014266
241,constitucion,-35.3333,-72.4167,13.71,92,17,1.8,CL,1672998136
242,kangaatsiaq,68.3065,-53.4641,-21.14,88,54,4.11,GL,1673019121
243,grong,64.4654,12.3149,-3.4,70,100,10.24,NO,1672995689
244,sao felix do xingu,-6.6447,-51.995,21.46,100,100,0.71,BR,1672996729
245,khorramshahr,30.4397,48.1664,16.98,59,20,2.06,IR,1672976696
246,canchungo,12.0672,-16.0333,21.07,18,67,3.36,GW,1672989976
247,taoudenni,22.6783,-3.9836,19.5,24,2,6.29,ML,1672988243
248,karratha,-20.7377,116.8463,28.48,66,100,13.64,AU,1672954669
249,srednekolymsk,67.45,153.6833,-45.54,100,73,0.36,RU,1672965960
250,moose factory,51.2585,-80.6094,-24.01,77,100,1.03,CA,1673011542
251,athabasca,54.7169,-113.2854,-7.77,87,97,3.28,CA,1673020465
252,lagoa,39.05,-27.9833,16.18,90,100,11.81,PT,1672996270
253,rudbar,30.15,62.6,18.12,19,72,2.57,AF,1672973193
254,umm kaddadah,13.6017,26.6876,22.75,20,15,7.63,SD,1672979881
255,anadyr,64.75,177.4833,-19.72,76,75,7.0,RU,1672956368
256,saint-augustin,51.226,-58.6502,-17.1,83,14,2.56,CA,1673006264
257,baza,37.4907,-2.7726,11.52,62,0,1.0,ES,1672989961
258,sweetwater,25.7634,-80.3731,21.01,85,0,3.6,US,1673006947
259,iralaya,15.0,-83.2333,24.35,84,68,6.13,HN,1673006415
260,san ignacio,17.1561,-89.0714,19.08,94,0,0.0,BZ,1673008047
261,southbridge,42.0751,-72.0334,2.59,98,100,0.89,US,1673007381
262,necochea,-38.5473,-58.7368,20.03,57,12,2.68,AR,1672994308
263,oranjemund,-28.55,16.4333,21.37,54,0,5.65,NA,1672977798
264,chimore,-16.9833,-65.1333,19.18,85,54,1.23,BO,1672998792
265,doune,56.1899,-4.0529,7.83,89,100,8.65,GB,1672994799
266,ergani,38.2653,39.7621,6.55,42,0,2.32,TR,1672979879
267,vila velha,-20.3297,-40.2925,25.97,94,75,4.12,BR,1672992447
268,omsukchan,62.5333,155.8,-39.09,100,54,1.76,RU,1672959724
269,riyadh,24.6877,46.7219,10.08,83,100,3.24,SA,1672976310
270,samarai,-10.6167,150.6667,28.22,78,65,2.74,PG,1672947663
271,chimoio,-19.1164,33.4833,25.44,68,100,0.95,MZ,1672974873
272,kutum,14.2,24.6667,20.5,18,26,5.78,SD,1672980429
273,ostrovnoy,68.0531,39.5131,-10.33,93,99,4.94,RU,1672995129
274,jiangkou,25.4872,119.1986,15.34,77,84,4.47,CN,1672959011
275,prado,-17.3411,-39.2208,24.89,86,100,3.69,BR,1672992530
276,wawa,9.9022,4.4192,28.15,23,52,2.62,NG,1672984844
277,marawi,7.9986,124.2928,20.84,97,82,1.86,PH,1672955874
278,itarema,-2.9248,-39.9167,25.95,77,92,4.16,BR,1672994203
279,hamilton,39.1834,-84.5333,3.2,77,100,4.12,US,1673009864
280,mindelo,16.8901,-24.9804,21.75,73,75,9.26,CV,1672992634
281,sooke,48.3746,-123.7276,9.73,81,100,2.29,CA,1673021131
282,revelstoke,50.9832,-118.2023,-3.99,100,100,1.03,CA,1673020485
283,makakilo city,21.3469,-158.0858,22.6,85,0,1.54,US,1672938666
284,alta floresta,-9.8756,-56.0861,21.26,100,100,1.23,BR,1672997380
285,qostanay,53.1667,63.5833,-7.84,86,100,4.0,KZ,1672977516
286,nikolskoye,59.7035,30.7861,-9.06,91,54,0.85,RU,1672988006
287,arrecife,28.963,-13.5477,18.99,72,20,3.09,ES,1672991312
288,ape,57.5393,26.6929,-12.94,69,8,2.35,LV,1672987972
289,camacupa,-12.0167,17.4833,21.14,83,100,2.68,AO,1672979493
290,swift current,50.2834,-107.8014,-11.55,85,0,4.12,CA,1673017798
291,balaipungut,1.05,101.2833,28.05,78,57,2.5,ID,1672960701
292,yuancheng,36.652,107.7896,2.28,27,0,2.05,CN,1672963291
293,saskylakh,71.9167,114.0833,-40.85,100,97,1.63,RU,0
294,sisimiut,66.9395,-53.6735,-11.34,61,100,3.98,GL,1673014573
295,vanimo,-2.6741,141.3028,26.4,88,96,4.34,PG,1672950722
296,faanui,-16.4833,-151.75,26.98,69,48,4.56,PF,1672933208
297,kruisfontein,-34.0033,24.7314,21.6,48,71,4.41,ZA,1672975017
298,jacareacanga,-6.2222,-57.7528,21.92,100,100,0.32,BR,1672998154
299,severobaykalsk,55.65,109.3167,-17.56,96,100,1.64,RU,1672967396
300,fairbanks,64.8378,-147.7164,-23.02,79,20,0.0,US,1673034408
301,oron,4.8256,8.2343,31.17,49,82,1.55,NG,1672983416
302,gazli,40.1333,63.45,10.78,50,96,4.72,UZ,1672974514
303,upernavik,72.7868,-56.1549,-26.84,82,17,4.44,GL,0
304,grand-santi,4.25,-54.3833,21.53,100,97,0.72,GF,1672998391
305,agirish,61.9247,63.0231,-28.4,100,92,1.5,RU,1672981560
306,porto nacional,-10.7081,-48.4172,23.0,90,100,0.24,BR,1672995452
307,hasaki,35.7333,140.8333,6.22,46,98,2.35,JP,1672955217
308,mundo nuevo,18.7,-95.5,22.16,87,4,4.5,MX,1673009759
309,nara,34.6851,135.8049,8.62,69,78,1.79,JP,1672956265
310,berlevag,70.8578,29.0864,1.0,64,40,8.75,NO,0
311,nizhniy baskunchak,48.2198,46.8311,5.77,92,100,9.05,RU,1672980167
312,mananjary,-21.2167,48.3333,29.39,58,26,4.4,MG,1672971063
313,chapada dos guimaraes,-15.4606,-55.7497,18.81,98,96,1.16,BR,1672996706
314,egvekinot,66.3167,-179.1667,-22.08,93,100,4.11,RU,1673043666
315,berdigestyakh,62.0989,126.6992,-41.41,100,97,0.79,RU,1672966404
316,chisinau,47.0056,28.8575,7.24,77,100,6.69,MD,1672984193
317,evensk,61.95,159.2333,-21.64,73,100,3.64,RU,1672958503
318,seto,35.2333,137.1,7.63,60,100,1.05,JP,1672956037
319,hirara,24.8,125.2833,17.92,100,75,6.17,JP,1672957467
320,husavik,66.0449,-17.3389,-4.63,87,100,3.78,IS,1673004528
321,kidal,18.4411,1.4078,23.08,16,99,5.8,ML,1672986469
322,ust-ilimsk,58.0006,102.6619,-9.47,96,99,1.85,RU,1672969949
323,khandyga,62.6667,135.6,-36.08,100,98,1.16,RU,1672964663
324,klyuchevskiy,53.5317,119.4519,-25.12,99,84,0.87,RU,1672964229
325,sorong,-0.8833,131.25,27.95,78,100,4.04,ID,1672953314
326,flinders,-34.5833,150.8552,18.43,82,100,2.68,AU,1672944639
327,sambava,-14.2667,50.1667,28.27,67,79,4.25,MG,1672971406
328,uyuni,-20.4597,-66.825,7.46,65,83,3.13,BO,1672998803
329,langxiang,46.95,128.8833,-20.19,97,4,0.36,CN,1672960177
330,rincon,32.296,-81.2354,11.03,66,0,2.57,US,1673008010
331,glendive,47.1053,-104.7125,-13.21,86,0,2.57,US,1673016268
332,newnan,33.3807,-84.7997,3.13,80,0,0.0,US,1673009020
333,tete,-16.1564,33.5867,30.05,70,75,1.54,MZ,1672975180
334,hami,42.8,93.45,-3.07,43,36,1.8,CN,1672967806
335,kamaishi,39.2667,141.8833,0.91,76,35,2.98,JP,1672955539
336,victoria point,-27.5833,153.3,23.58,77,56,4.47,AU,1672945063
337,batagay,67.6333,134.6333,-41.28,100,100,0.83,RU,1672970978
338,mildura,-34.2,142.15,25.6,41,0,4.95,AU,1672946789
339,popondetta,-8.7537,148.2534,24.42,98,100,1.08,PG,1672948436
340,bathsheba,13.2167,-59.5167,25.34,78,40,11.32,BB,1673000534
341,oxelosund,58.6706,17.1015,-1.79,74,75,8.75,SE,1672990780
342,srandakan,-7.9386,110.2506,26.21,84,100,3.36,ID,1672957644
343,atbasar,51.8,68.3333,-5.06,94,96,4.62,KZ,1672975961
344,urusha,54.05,122.9,-29.56,100,53,0.57,RU,1672963572
345,kuruman,-27.4524,23.4325,25.11,18,0,2.05,ZA,1672976265
346,chumikan,54.7183,135.315,-22.11,89,5,7.48,RU,1672960823
347,lisakovsk,52.5369,62.4936,-10.74,89,93,4.0,KZ,1672977582
348,komsomolskiy,40.4272,71.7189,5.4,75,100,2.06,UZ,1672972581
349,tiarei,-17.5333,-149.3333,27.01,77,36,1.8,PF,1672932510
350,kunya,12.2233,8.5325,19.09,34,85,4.12,NG,1672984095
351,mapiripan,2.8892,-72.1256,22.42,78,86,2.07,CO,1673002515
352,stornoway,58.2093,-6.3865,6.98,84,40,8.75,GB,1672996202
353,nahuala,14.85,-91.3167,10.29,67,10,2.24,GT,1673008339
354,panjakent,39.4952,67.6093,6.68,68,99,2.32,TJ,1672973404
355,zelenoborskiy,66.845,32.3622,-12.32,92,100,3.11,RU,1672993807
356,cidreira,-30.1811,-50.2056,22.01,75,2,4.12,BR,1672993575
357,helong,42.5397,128.9972,-6.27,94,100,1.41,CN,1672959225
358,srostki,52.4189,85.7022,0.82,100,100,4.29,RU,1672971978
359,kaka,37.3482,59.6143,13.67,42,7,4.93,TM,1672974965
360,angoche,-16.2325,39.9086,32.5,56,66,4.2,MZ,1672973654
361,awbari,26.5921,12.7805,15.12,31,99,4.59,LY,1672984691
362,grand gaube,-20.0064,57.6608,30.22,61,99,4.47,MU,1672968965
363,baruun-urt,46.6806,113.2792,-17.76,94,5,3.45,MN,1672963860
364,visnes,59.3556,5.2242,5.12,81,75,10.29,NO,1672993961
365,yar-sale,66.8333,70.8333,-32.81,100,100,3.97,RU,1672984573
366,jalu,29.0331,21.5482,17.11,60,100,2.65,LY,1672982898
367,nuuk,64.1835,-51.7216,-0.66,43,75,3.09,GL,1673010784
368,lashio,22.9333,97.75,23.32,45,0,1.05,MM,1672963853
369,elektrenai,54.7667,24.6333,-10.83,72,9,3.3,LT,1672987394
370,lazaro cardenas,17.9583,-102.2,22.27,88,2,1.56,MX,1673011286
371,price,39.5994,-110.8107,-1.41,93,100,0.0,US,1673016242
372,aromashevo,56.8602,68.6375,-16.63,93,91,2.25,RU,1672977626
373,batken,39.8333,71.0,-0.25,74,100,0.4,KG,1672972649
374,boguchany,58.3814,97.4531,-8.97,96,99,2.12,RU,1672971371
375,okakarara,-20.5833,17.4333,29.9,25,52,3.06,NA,1672978557
376,belmonte,-15.8631,-38.8828,25.4,85,100,3.13,BR,1672992613
377,angoram,-4.0625,144.0661,24.39,97,100,0.47,PG,1672949919
378,ghanzi,-21.5667,21.7833,29.28,30,18,3.96,BW,1672977397
379,leningradskiy,69.3833,178.4167,-28.52,95,100,4.0,RU,0
380,kigoma,-4.8769,29.6267,28.33,69,20,2.57,TZ,1672977311
381,shache,38.4167,77.2406,3.73,28,100,0.45,CN,1672970910
382,harbour breton,47.4833,-55.7983,-3.57,50,100,2.64,CA,1673004618
383,santa marta,11.2408,-74.199,24.12,78,1,4.05,CO,1673003854
384,ranau,5.9538,116.6641,22.96,95,99,0.06,MY,1672957499
385,tecoanapa,16.5167,-98.75,22.97,86,0,2.02,MX,1673010302
386,coquimbo,-29.9533,-71.3436,15.85,82,0,1.03,CL,1672998683
387,nakamura,32.9833,132.9333,5.22,75,52,1.77,JP,1672956704
388,kuryk,43.2,51.65,8.97,75,61,11.52,KZ,1672977916
389,port hedland,-20.3167,118.5667,31.03,66,100,11.32,AU,1672954305
390,meulaboh,4.1363,96.1285,27.32,76,90,2.01,ID,1672962247
391,montepuez,-13.1256,38.9997,27.96,68,59,2.44,MZ,1672974209
392,palmas,-10.2128,-48.3603,25.55,21,75,0.0,BR,1672995490
393,dakar,14.6937,-17.4441,24.49,60,0,4.12,SN,1672990590
394,sinnamary,5.3833,-52.95,24.13,90,90,4.06,GF,1672998160
395,zeya,53.75,127.2667,-28.52,99,34,1.5,RU,1672962425
396,poum,-20.2333,164.0167,27.47,72,100,1.68,NC,1672943402
397,ostersund,63.1792,14.6357,-7.44,100,100,24.14,SE,1672994048
398,mount gambier,-37.8333,140.7667,18.35,64,0,4.91,AU,1672946523
399,fortuna,40.5982,-124.1573,11.19,82,100,9.77,US,1673019620
400,laguna,38.421,-121.4238,10.03,90,100,3.09,US,1673018589
401,bykovo,55.6361,38.0803,-18.8,71,0,4.0,RU,1672984482
402,salalah,17.0151,54.0924,27.05,57,75,4.12,OM,1672973666
403,kalmunai,7.4167,81.8167,26.77,78,66,5.73,LK,1672966012
404,vardo,70.3705,31.1107,-1.01,93,40,8.75,NO,0
405,bluffton,32.2371,-80.8604,9.97,79,0,0.0,US,1673007912
406,sur,22.5667,59.5289,23.87,51,34,4.77,OM,1672972985
407,gat,31.61,34.7642,15.99,100,96,4.55,IL,1672980073
408,zhigansk,66.7697,123.3711,-45.62,100,73,0.73,RU,1672971883
409,libreville,0.3925,9.4537,28.01,83,20,1.03,GA,1672982681
410,sitka,57.0531,-135.33,4.94,81,100,3.09,US,1673026636
411,panzhihua,26.5851,101.7128,17.36,48,7,0.36,CN,1672963344
412,paamiut,61.994,-49.6678,-7.71,57,81,5.78,GL,1673008630
413,cururupu,-1.8283,-44.8683,24.42,84,63,0.93,BR,1672995502
414,port lincoln,-34.7333,135.8667,19.22,70,0,5.52,AU,1672948214
415,puerto madero,14.7208,-92.4215,23.61,69,0,1.98,MX,1673008591
416,bali,-8.5,115.0,28.54,86,96,2.63,ID,1672956446
417,masakin,35.7292,10.5808,15.7,67,20,7.2,TN,1672986478
418,suntar,62.1444,117.6319,-29.04,99,100,1.73,RU,1672968609
419,blagoyevo,63.3667,47.9167,-23.7,97,87,2.83,RU,1672986213
420,marshall,34.3834,-86.3333,5.61,69,0,2.06,US,1673009535
421,saint marys,30.7305,-81.5465,13.01,78,0,2.06,US,1673007868
422,sangar,63.9242,127.4739,-38.65,98,76,1.29,RU,1672967596
423,keti bandar,24.1447,67.4497,24.1,18,1,6.6,PK,1672971270
424,yoichi,43.2039,140.7703,-2.05,70,85,3.91,JP,1672956529
425,bonavista,48.6499,-53.1147,-5.18,70,78,3.92,CA,1673004255
426,abnub,27.2696,31.1511,17.12,33,0,4.38,EG,1672980366
427,gizo,-8.103,156.8419,28.3,78,34,4.53,SB,1672946441
428,havre-saint-pierre,50.2334,-63.5986,-12.0,66,100,2.57,CA,1673007178
429,povenets,62.8487,34.8262,-15.48,98,81,2.06,RU,1672988960
430,port macquarie,-31.4333,152.9167,19.44,85,6,3.85,AU,1672944620
431,taltal,-25.4,-70.4833,18.57,81,10,1.24,CL,1672999081
432,cardston,49.2,-113.3019,6.05,52,100,6.69,CA,1673018835
433,yefremov,53.1481,38.0992,-15.45,76,47,6.7,RU,1672983625
434,zhuhai,22.2769,113.5678,22.88,56,0,6.17,CN,1672959980
435,marovoay,-16.1,46.6333,34.01,46,54,1.32,MG,1672972054
436,borgosesia,45.7145,8.2799,7.98,59,14,0.75,IT,1672988843
437,sirajganj,24.45,89.7167,20.75,54,0,2.75,BD,1672965961
438,rucheng,32.3883,120.5553,11.65,40,0,4.05,CN,1672959590
439,mangrol,21.1167,70.1167,24.81,50,11,3.44,IN,1672970276
440,along,28.1667,94.7667,20.71,41,0,0.31,IN,1672965211
441,bani walid,31.7566,13.9942,15.42,39,0,3.02,LY,1672985078
442,yulara,-25.2406,130.9889,25.6,26,100,5.57,AU,1672950725
443,beihai,21.4833,109.1,21.76,50,54,5.78,CN,1672960960
444,tura,25.5198,90.2201,23.05,36,0,1.69,IN,1672965970
445,kaitangata,-46.2817,169.8464,11.5,95,100,3.98,NZ,1672937815
446,umm lajj,25.0213,37.2685,23.26,34,0,5.11,SA,1672978620
447,nanortalik,60.1432,-45.2371,-6.35,69,99,3.53,GL,1673006472
448,blagodatnoye,45.3997,42.5867,6.51,69,100,7.87,RU,1672980542
449,englewood,39.6478,-104.9878,1.46,68,70,2.34,US,1673014852
450,mosquera,4.7059,-74.2302,11.05,93,75,1.03,CO,1673003201
451,verkhoyansk,67.5447,133.385,-46.19,100,84,1.1,RU,1672971047
452,sakakah,29.9697,40.2064,13.76,52,0,1.06,SA,1672978543
453,colares,38.7992,-9.4469,14.07,88,40,3.13,PT,1672991778
454,gigmoto,13.7796,124.39,25.08,88,31,5.56,PH,1672956446
455,lakes entrance,-37.8811,147.981,16.76,73,98,5.16,AU,1672944782
456,matagami,49.7502,-77.6328,-11.94,79,100,1.54,CA,1673010418
457,gbarnga,6.9956,-9.4722,27.72,46,23,0.75,LR,1672987884
458,wakkanai,45.4094,141.6739,-3.01,74,75,5.66,JP,1672956766
459,muravlenko,63.7898,74.523,-25.19,97,100,6.58,RU,1672980178
460,general roca,-39.0333,-67.5833,24.23,29,100,2.88,AR,1672996345
461,caucaia,-3.7361,-38.6531,29.61,83,20,2.57,BR,1672993819
462,cassia,-20.5831,-46.9219,19.33,98,100,0.59,BR,1672994009
463,nador,35.174,-2.9287,14.14,77,20,0.51,MA,1672989635
464,huambo,-12.7761,15.7392,17.83,88,100,1.7,AO,1672979831
465,kununurra,-15.7667,128.7333,31.99,55,40,8.23,AU,1672952379
466,la ronge,55.1001,-105.2842,-13.86,85,100,3.09,CA,1673018681
467,dongdu,35.85,117.7,6.38,25,0,4.16,CN,1672960787
468,novaya mayna,54.15,49.75,-17.98,92,100,5.31,RU,1672981156
469,biograd na moru,43.9433,15.4519,12.09,68,20,1.15,HR,1672986751
470,lavrentiya,65.5833,-171.0,-14.89,94,100,2.27,RU,1673040784
471,ilulissat,69.2167,-51.1,-23.79,74,13,2.23,GL,0
472,arroio do meio,-29.4011,-51.945,17.4,83,0,0.78,BR,1672994101
473,caracollo,-14.9165,-70.6603,5.59,72,100,1.0,PE,1673000345
474,torbay,47.6666,-52.7314,-7.01,80,40,4.63,CA,1673003925
475,mega,4.05,38.3,25.42,20,32,7.87,ET,1672976121
476,nueve de julio,-35.4444,-60.8831,18.87,60,39,0.89,AR,1672995348
477,bayir,37.2687,28.2167,10.29,52,0,2.01,TR,1672982487
478,gao,16.6362,1.637,24.53,15,92,6.95,ML,1672986217
479,huarmey,-10.0681,-78.1522,20.09,83,100,2.39,PE,1673002658
480,den helder,52.9599,4.7593,9.43,83,26,9.39,NL,1672991565
481,pitkyaranta,61.5734,31.4792,-13.64,95,62,2.74,RU,1672988901
482,esperance,-33.8667,121.9,25.11,49,14,7.5,AU,1672951704
483,atar,20.5169,-13.0499,20.72,15,12,6.74,MR,1672990171
484,alamos,27.0167,-108.9333,17.07,24,0,1.62,MX,1673013958
485,mpika,-11.8343,31.4529,18.07,91,100,3.21,ZM,1672976158
486,kabo,7.6994,18.629,34.63,18,72,3.22,CF,1672981209
487,ceres,37.5949,-120.9577,9.47,93,100,3.6,US,1673018342
488,savannah bight,16.45,-85.85,26.37,67,52,6.76,HN,1673007198
489,divnogorsk,55.9594,92.3619,-4.73,97,100,0.5,RU,1672971581
490,talnakh,69.4865,88.3972,-44.33,95,39,0.92,RU,0
491,san rafael,-34.6177,-68.3301,24.0,33,99,2.11,AR,1672997268
492,hammerfest,70.6634,23.6821,-1.75,93,75,3.09,NO,0
493,teeli,51.0333,90.2333,-17.1,98,97,0.48,RU,1672970486
494,whitehorse,60.7161,-135.0538,-13.83,83,75,1.54,CA,1673028330
495,saryozek,44.3583,77.9753,2.84,83,100,1.65,KZ,1672971831
496,bandarbeyla,9.4942,50.8122,26.28,67,48,7.25,SO,1672973666
497,ahipara,-35.1667,173.1667,19.79,96,100,2.29,NZ,1672939188
498,susanville,40.4163,-120.653,1.91,88,20,1.54,US,1673018746
499,ratnagiri,16.9833,73.3,29.11,51,0,5.26,IN,1672969052
500,tortoli,39.9256,9.6572,13.9,62,75,2.57,IT,1672987387
501,inuvik,68.3499,-133.7218,-16.52,85,100,3.6,CA,0
502,callaguip,18.0714,120.4867,29.01,65,75,3.6,PH,1672957844
503,chilca,-12.5211,-76.7372,19.67,89,99,1.96,PE,1673002061
504,chibombo,-14.6569,28.0706,23.76,73,100,2.87,ZM,1672976669
505,auxerre,47.8,3.5667,9.79,77,100,4.46,FR,1672990448
506,ouegoa,-20.35,164.4333,26.98,77,100,1.47,NC,1672943289
507,rosetta,31.4044,30.4164,18.43,52,47,4.33,EG,1672981088
508,bengkulu,-3.8004,102.2655,27.38,71,54,2.22,ID,1672959981
509,filingue,14.3521,3.3168,26.28,15,49,7.73,NE,1672985570
510,kloulklubed,7.0419,134.2556,26.25,91,100,8.8,PW,1672953385
511,beterou,9.1992,2.2586,30.0,19,96,3.15,BJ,1672985291
512,mnogovershinnyy,53.9353,139.9242,-24.36,89,3,1.99,RU,1672959449
513,dzhebariki-khaya,62.2167,135.8,-37.37,100,97,0.53,RU,1672964301
514,lorengau,-2.0226,147.2712,27.62,79,100,3.9,PG,1672949354
515,puerto escondido,15.85,-97.0667,23.54,65,0,2.48,MX,1673009826
516,otta,61.7712,9.5353,-8.03,95,100,3.91,NO,1672994288
517,ovalle,-30.5983,-71.2003,17.52,76,2,1.16,CL,1672998558
518,luwuk,-0.9516,122.7875,26.81,85,100,1.05,ID,1672955339
519,ayan,56.45,138.1667,-20.53,79,3,4.0,RU,1672960782
520,kaffrine,14.1059,-15.5508,25.32,13,100,5.29,SN,1672990073
521,reconquista,-29.15,-59.65,21.24,40,2,2.86,AR,1672995986
522,merauke,-8.4667,140.3333,27.88,79,100,6.75,ID,1672950367
523,jiwani,25.05,61.7417,22.06,48,80,1.54,PK,1672972749
524,mezen,65.8522,44.24,-26.9,96,18,1.28,RU,1672989526
525,manokwari,-0.8667,134.0833,26.63,82,85,2.74,ID,1672952636
526,iwaki,37.05,140.8833,3.34,64,100,0.45,JP,1672955412
527,luanda,-8.8368,13.2343,29.0,70,75,4.12,AO,1672980844
528,batemans bay,-35.7167,150.1833,18.94,74,23,4.46,AU,1672944618
529,amapa,1.0,-52.0,21.17,99,100,0.8,BR,1672997495
530,sechura,-5.5569,-80.8222,18.74,84,99,2.58,PE,1673003759
531,longyan,25.1072,117.0225,13.99,78,90,1.6,CN,1672959487
532,byron bay,-28.65,153.6167,21.64,68,70,7.1,AU,1672944844
533,aqtobe,50.2797,57.2072,-1.95,80,75,8.0,KZ,1672978204
534,jacmel,18.2342,-72.5347,21.91,70,6,1.92,HT,1673004195
535,saint-pierre,-21.3393,55.4781,31.82,51,93,6.69,RE,1672969333
536,malartic,48.1335,-78.1328,-7.94,97,99,1.7,CA,1673010132
537,walvis bay,-22.9575,14.5053,20.53,60,0,5.66,NA,1672978977
538,port augusta,-32.5,137.7667,25.11,44,0,7.11,AU,1672948101
539,waipawa,-41.4122,175.5153,16.57,94,100,2.54,NZ,1672937514
540,kavaratti,10.5669,72.642,27.29,65,1,3.6,IN,1672968535
541,isla vista,34.4133,-119.861,12.13,80,0,2.06,US,1673017586
542,abong mbang,3.9833,13.1833,31.65,25,84,1.95,CM,1672982144
543,kumluca,36.3703,30.2869,16.06,59,0,1.98,TR,1672981848
544,djambala,-2.5447,14.7533,25.14,65,98,0.15,CG,1672981116
545,dunedin,-45.8742,170.5036,15.45,95,100,5.84,NZ,1672937754
546,sueyoshi,31.65,131.0167,8.83,86,56,1.38,JP,1672956976
547,kuliyapitiya,7.4688,80.0401,30.82,69,77,5.18,LK,1672966444
548,fougeres,48.35,-1.2,10.92,92,99,6.15,FR,1672991724
549,changji,44.0167,87.3167,-5.56,73,40,1.0,CN,1672969519
550,san jeronimo,-11.9472,-75.2829,7.35,86,100,0.3,PE,1673001772
551,bom jesus,-9.0744,-44.3586,22.98,87,89,0.78,BR,1672994647
552,guerrero negro,27.9769,-114.0611,15.21,86,0,6.69,MX,1673015310
553,bridlington,54.0831,-0.1919,7.3,77,81,8.51,GB,1672993116
554,bowen,-20.0167,148.2333,24.56,84,100,4.29,AU,1672947217
555,lompoc,34.6391,-120.4579,7.51,97,0,2.06,US,1673017763
556,taruma,-22.7467,-50.5772,16.54,89,46,3.48,BR,1672994630
557,kang,-23.6752,22.7876,28.77,16,14,4.45,BW,1672976901
558,erie,42.7667,-78.6664,2.68,81,100,0.89,US,1673009105
559,suileng,47.25,127.0833,-21.62,96,6,2.33,CN,1672960679
560,kijang,35.2442,129.2139,5.85,36,0,2.86,KR,1672957931
561,taloqan,36.7361,69.5345,10.16,47,100,0.42,AF,1672972486
562,bakchar,57.0186,82.0711,-20.59,100,57,1.63,RU,1672974469
563,novobirilyussy,56.9514,90.6661,-14.45,100,99,1.39,RU,1672972379
564,nizhniy kuranakh,58.8353,125.4869,-20.95,99,99,1.17,RU,1672964859
565,dalnerechensk,45.9339,133.7225,-23.3,100,15,1.78,RU,1672958788
566,teacapan,22.55,-105.75,17.65,79,0,1.87,MX,1673012655
567,pemangkat,1.1667,108.9667,26.43,83,100,5.21,ID,1672958868
568,warburg,51.5,9.1667,10.37,81,75,4.63,DE,1672990070
569,kodinsk,58.6881,99.1844,-10.59,97,100,1.08,RU,1672971098
570,skopelos,39.1247,23.7247,14.01,68,0,7.37,GR,1672983873
571,acarau,-2.8856,-40.12,25.84,78,91,4.43,BR,1672994256
